{"exportDate": "2026-03-25T03:48:13.064331Z", "states": ["AK", "AZ", "CA", "CO", "ID", "MT", "NV", "NH", "NM", "OR", "UT", "WA", "WY"], "snotel": [{"type": "snotel", "tripletID": "540:CA:SNTL", "name": "Independence Creek", "lat": 39.49001, "lng": -120.28226, "elevation": 6440.0, "state": "California"}, {"type": "snotel", "tripletID": "539:CA:SNTL", "name": "Independence Camp", "lat": 39.45269, "lng": -120.29367, "elevation": 6970.0, "state": "California"}, {"type": "snotel", "tripletID": "1050:CA:SNTL", "name": "Horse Meadow", "lat": 38.83652, "lng": -119.88732, "elevation": 8580.0, "state": "California"}, {"type": "snotel", "tripletID": "518:CA:SNTL", "name": "Heavenly Valley", "lat": 38.92431, "lng": -119.91641, "elevation": 8540.0, "state": "California"}, {"type": "snotel", "tripletID": "508:CA:SNTL", "name": "Hagans Meadow", "lat": 38.8519, "lng": -119.9374, "elevation": 7740.0, "state": "California"}, {"type": "snotel", "tripletID": "1277:CA:SNTL", "name": "Fredonyer Peak", "lat": 40.68799, "lng": -120.60805, "elevation": 7220.0, "state": "California"}, {"type": "snotel", "tripletID": "1049:CA:SNTL", "name": "Forestdale Creek", "lat": 38.68245, "lng": -119.9597, "elevation": 8050.0, "state": "California"}, {"type": "snotel", "tripletID": "473:CA:SNTL", "name": "Fallen Leaf", "lat": 38.93403, "lng": -120.0545, "elevation": 6250.0, "state": "California"}, {"type": "snotel", "tripletID": "463:CA:SNTL", "name": "Echo Peak", "lat": 38.849, "lng": -120.0795, "elevation": 7650.0, "state": "California"}, {"type": "snotel", "tripletID": "462:CA:SNTL", "name": "Ebbetts Pass", "lat": 38.5497, "lng": -119.80468, "elevation": 8660.0, "state": "California"}, {"type": "snotel", "tripletID": "446:CA:SNTL", "name": "Dismal Swamp", "lat": 41.99127, "lng": -120.18033, "elevation": 7370.0, "state": "California"}, {"type": "snotel", "tripletID": "428:CA:SNTL", "name": "Css Lab", "lat": 39.32565, "lng": -120.36807, "elevation": 6890.0, "state": "California"}, {"type": "snotel", "tripletID": "977:CA:SNTL", "name": "Crowder Flat", "lat": 41.89318, "lng": -120.75202, "elevation": 5180.0, "state": "California"}, {"type": "snotel", "tripletID": "391:CA:SNTL", "name": "Cedar Pass", "lat": 41.58233, "lng": -120.3025, "elevation": 7060.0, "state": "California"}, {"type": "snotel", "tripletID": "1067:CA:SNTL", "name": "Carson Pass", "lat": 38.6927, "lng": -120.0022, "elevation": 8360.0, "state": "California"}, {"type": "snotel", "tripletID": "1051:CA:SNTL", "name": "Burnside Lake", "lat": 38.71943, "lng": -119.8942, "elevation": 8180.0, "state": "California"}, {"type": "snotel", "tripletID": "356:CA:SNTL", "name": "Blue Lakes", "lat": 38.608, "lng": -119.92437, "elevation": 8060.0, "state": "California"}, {"type": "snotel", "tripletID": "301:CA:SNTL", "name": "Adin Mtn", "lat": 41.23583, "lng": -120.79192, "elevation": 6170.0, "state": "California"}, {"type": "snotel", "tripletID": "877:AZ:SNTL", "name": "Workman Creek", "lat": 33.81242, "lng": -110.91773, "elevation": 7030.0, "state": "Arizona"}, {"type": "snotel", "tripletID": "866:AZ:SNTL", "name": "Wildcat", "lat": 33.75835, "lng": -109.47973, "elevation": 7850.0, "state": "Arizona"}, {"type": "snotel", "tripletID": "861:AZ:SNTL", "name": "White Horse Lake", "lat": 35.14202, "lng": -112.14915, "elevation": 7190.0, "state": "Arizona"}, {"type": "snotel", "tripletID": "927:AZ:SNTL", "name": "Snowslide Canyon", "lat": 35.3416, "lng": -111.65058, "elevation": 9720.0, "state": "Arizona"}, {"type": "snotel", "tripletID": "705:AZ:SNTL", "name": "Promontory", "lat": 34.36824, "lng": -111.01084, "elevation": 7930.0, "state": "Arizona"}, {"type": "snotel", "tripletID": "1127:AZ:SNTL", "name": "Nutrioso", "lat": 33.89747, "lng": -109.15517, "elevation": 8550.0, "state": "Arizona"}, {"type": "snotel", "tripletID": "1125:AZ:SNTL", "name": "Mormon Mtn Summit", "lat": 34.96964, "lng": -111.50922, "elevation": 8450.0, "state": "Arizona"}, {"type": "snotel", "tripletID": "640:AZ:SNTL", "name": "Mormon Mountain", "lat": 34.94109, "lng": -111.51849, "elevation": 7490.0, "state": "Arizona"}, {"type": "snotel", "tripletID": "617:AZ:SNTL", "name": "Maverick Fork", "lat": 33.92121, "lng": -109.45881, "elevation": 9210.0, "state": "Arizona"}, {"type": "snotel", "tripletID": "878:WY:SNTL", "name": "Younts Peak", "lat": 43.93225, "lng": -109.81775, "elevation": 8340.0, "state": "Wyoming"}, {"type": "snotel", "tripletID": "519:AZ:SNTL", "name": "Heber", "lat": 34.31202, "lng": -110.75431, "elevation": 7650.0, "state": "Arizona"}, {"type": "snotel", "tripletID": "875:WY:SNTL", "name": "Wolverine", "lat": 44.80417, "lng": -109.657, "elevation": 7660.0, "state": "Wyoming"}, {"type": "snotel", "tripletID": "1271:AZ:SNTL", "name": "Hawley Lake", "lat": 33.97142, "lng": -109.76528, "elevation": 8290.0, "state": "Arizona"}, {"type": "snotel", "tripletID": "872:WY:SNTL", "name": "Windy Peak", "lat": 42.2802, "lng": -105.57816, "elevation": 7890.0, "state": "Wyoming"}, {"type": "snotel", "tripletID": "969:AZ:SNTL", "name": "Happy Jack", "lat": 34.74598, "lng": -111.41207, "elevation": 7520.0, "state": "Arizona"}, {"type": "snotel", "tripletID": "868:WY:SNTL", "name": "Willow Creek", "lat": 42.81513, "lng": -110.83515, "elevation": 8060.0, "state": "Wyoming"}, {"type": "snotel", "tripletID": "511:AZ:SNTL", "name": "Hannagan Meadows", "lat": 33.65387, "lng": -109.30952, "elevation": 9030.0, "state": "Arizona"}, {"type": "snotel", "tripletID": "859:WY:SNTL", "name": "Whiskey Park", "lat": 41.00289, "lng": -106.90848, "elevation": 8950.0, "state": "Wyoming"}, {"type": "snotel", "tripletID": "488:AZ:SNTL", "name": "Fry", "lat": 35.07297, "lng": -111.84374, "elevation": 7220.0, "state": "Arizona"}, {"type": "snotel", "tripletID": "852:WY:SNTL", "name": "Webber Springs", "lat": 41.15946, "lng": -106.92714, "elevation": 9250.0, "state": "Wyoming"}, {"type": "snotel", "tripletID": "1121:AZ:SNTL", "name": "Fort Valley", "lat": 35.26806, "lng": -111.74486, "elevation": 7360.0, "state": "Arizona"}, {"type": "snotel", "tripletID": "837:WY:SNTL", "name": "Two Ocean Plateau", "lat": 44.15178, "lng": -110.22122, "elevation": 9240.0, "state": "Wyoming"}, {"type": "snotel", "tripletID": "416:AZ:SNTL", "name": "Coronado Trail", "lat": 33.80392, "lng": -109.15282, "elevation": 8400.0, "state": "Arizona"}, {"type": "snotel", "tripletID": "831:WY:SNTL", "name": "Triple Peak", "lat": 42.76393, "lng": -110.5914, "elevation": 8520.0, "state": "Wyoming"}, {"type": "snotel", "tripletID": "1139:AZ:SNTL", "name": "Chalender", "lat": 35.26247, "lng": -112.06231, "elevation": 7020.0, "state": "Arizona"}, {"type": "snotel", "tripletID": "826:WY:SNTL", "name": "Townsend Creek", "lat": 42.69525, "lng": -108.89572, "elevation": 8720.0, "state": "Wyoming"}, {"type": "snotel", "tripletID": "1143:AZ:SNTL", "name": "Beaver Spring", "lat": 36.32678, "lng": -109.05711, "elevation": 9240.0, "state": "Arizona"}, {"type": "snotel", "tripletID": "822:WY:SNTL", "name": "Togwotee Pass", "lat": 43.74902, "lng": -110.0578, "elevation": 9590.0, "state": "Wyoming"}, {"type": "snotel", "tripletID": "902:AZ:SNTL", "name": "Beaver Head", "lat": 33.69144, "lng": -109.21657, "elevation": 8070.0, "state": "Arizona"}, {"type": "snotel", "tripletID": "819:WY:SNTL", "name": "Timber Creek", "lat": 44.0274, "lng": -109.17879, "elevation": 7910.0, "state": "Wyoming"}, {"type": "snotel", "tripletID": "1212:AZ:SNTL", "name": "Bar M", "lat": 34.86136, "lng": -111.60503, "elevation": 6380.0, "state": "Arizona"}, {"type": "snotel", "tripletID": "818:WY:SNTL", "name": "Tie Creek", "lat": 44.81243, "lng": -107.41017, "elevation": 7050.0, "state": "Wyoming"}, {"type": "snotel", "tripletID": "310:AZ:SNTL", "name": "Baldy", "lat": 33.97883, "lng": -109.50344, "elevation": 9210.0, "state": "Arizona"}, {"type": "snotel", "tripletID": "816:WY:SNTL", "name": "Thumb Divide", "lat": 44.36917, "lng": -110.57717, "elevation": 7970.0, "state": "Wyoming"}, {"type": "snotel", "tripletID": "1140:AZ:SNTL", "name": "Baker Butte Smt", "lat": 34.45547, "lng": -111.38272, "elevation": 7730.0, "state": "Arizona"}, {"type": "snotel", "tripletID": "807:WY:SNTL", "name": "Sylvan Road", "lat": 44.47825, "lng": -110.03808, "elevation": 7140.0, "state": "Wyoming"}, {"type": "snotel", "tripletID": "308:AZ:SNTL", "name": "Baker Butte", "lat": 34.4566, "lng": -111.40643, "elevation": 7360.0, "state": "Arizona"}, {"type": "snotel", "tripletID": "806:WY:SNTL", "name": "Sylvan Lake", "lat": 44.47764, "lng": -110.15651, "elevation": 8440.0, "state": "Wyoming"}, {"type": "snotel", "tripletID": "1055:AK:SNTL", "name": "Upper Tsaina River", "lat": 61.19112, "lng": -145.64807, "elevation": 1730.0, "state": "Alaska"}, {"type": "snotel", "tripletID": "798:WY:SNTL", "name": "Sucker Creek", "lat": 44.7225, "lng": -107.40033, "elevation": 8840.0, "state": "Wyoming"}, {"type": "snotel", "tripletID": "952:AK:SNTL", "name": "Upper Chena", "lat": 65.1, "lng": -144.93317, "elevation": 2790.0, "state": "Alaska"}, {"type": "snotel", "tripletID": "786:WY:SNTL", "name": "St. Lawrence Alt", "lat": 43.03313, "lng": -109.17025, "elevation": 8610.0, "state": "Wyoming"}, {"type": "snotel", "tripletID": "954:AK:SNTL", "name": "Turnagain Pass", "lat": 60.78043, "lng": -149.18325, "elevation": 1860.0, "state": "Alaska"}, {"type": "snotel", "tripletID": "779:WY:SNTL", "name": "Spring Creek Divide", "lat": 42.52516, "lng": -110.66148, "elevation": 9020.0, "state": "Wyoming"}, {"type": "snotel", "tripletID": "1089:AK:SNTL", "name": "Tokositna Valley", "lat": 62.63, "lng": -150.77617, "elevation": 840.0, "state": "Alaska"}, {"type": "snotel", "tripletID": "775:WY:SNTL", "name": "South Pass", "lat": 42.57317, "lng": -108.84325, "elevation": 9040.0, "state": "Wyoming"}, {"type": "snotel", "tripletID": "951:AK:SNTL", "name": "Teuchet Creek", "lat": 64.94583, "lng": -145.51667, "elevation": 1560.0, "state": "Alaska"}, {"type": "snotel", "tripletID": "772:WY:SNTL", "name": "South Brush Creek", "lat": 41.32943, "lng": -106.50248, "elevation": 8480.0, "state": "Wyoming"}, {"type": "snotel", "tripletID": "1266:AK:SNTL", "name": "Telaquana Lake", "lat": 60.98243, "lng": -153.91772, "elevation": 1250.0, "state": "Alaska"}, {"type": "snotel", "tripletID": "1132:WY:SNTL", "name": "Soldier Park", "lat": 44.34847, "lng": -107.0136, "elevation": 8680.0, "state": "Wyoming"}, {"type": "snotel", "tripletID": "967:AK:SNTL", "name": "Susitna Valley High", "lat": 62.13333, "lng": -150.04167, "elevation": 360.0, "state": "Alaska"}, {"type": "snotel", "tripletID": "765:WY:SNTL", "name": "Snider Basin", "lat": 42.4949, "lng": -110.53203, "elevation": 8080.0, "state": "Wyoming"}, {"type": "snotel", "tripletID": "955:AK:SNTL", "name": "Summit Creek", "lat": 60.61713, "lng": -149.53128, "elevation": 1340.0, "state": "Alaska"}, {"type": "snotel", "tripletID": "764:WY:SNTL", "name": "Snake River Station", "lat": 44.13361, "lng": -110.66917, "elevation": 6900.0, "state": "Wyoming"}, {"type": "snotel", "tripletID": "987:AK:SNTL", "name": "Port Graham", "lat": 59.35065, "lng": -151.84768, "elevation": 270.0, "state": "Alaska"}, {"type": "snotel", "tripletID": "751:WY:SNTL", "name": "Shell Creek", "lat": 44.50012, "lng": -107.42947, "elevation": 9570.0, "state": "Wyoming"}, {"type": "snotel", "tripletID": "950:AK:SNTL", "name": "Munson Ridge", "lat": 64.85033, "lng": -146.20945, "elevation": 3020.0, "state": "Alaska"}, {"type": "snotel", "tripletID": "732:WY:SNTL", "name": "Sandstone RS", "lat": 41.11172, "lng": -107.1706, "elevation": 8150.0, "state": "Wyoming"}, {"type": "snotel", "tripletID": "948:AK:SNTL", "name": "Mt. Ryan", "lat": 65.25113, "lng": -146.15133, "elevation": 2750.0, "state": "Alaska"}, {"type": "snotel", "tripletID": "731:WY:SNTL", "name": "Sand Lake", "lat": 41.46257, "lng": -106.28107, "elevation": 10080.0, "state": "Wyoming"}, {"type": "snotel", "tripletID": "1073:AK:SNTL", "name": "Mt. Eyak", "lat": 60.55, "lng": -145.745, "elevation": 1450.0, "state": "Alaska"}, {"type": "snotel", "tripletID": "730:WY:SNTL", "name": "Salt River Summit", "lat": 42.5075, "lng": -110.9099, "elevation": 7630.0, "state": "Wyoming"}, {"type": "snotel", "tripletID": "1103:AK:SNTL", "name": "Mt. Alyeska", "lat": 60.95983, "lng": -149.08617, "elevation": 1500.0, "state": "Alaska"}, {"type": "snotel", "tripletID": "1015:WY:SNTL", "name": "Sage Creek Basin", "lat": 41.401, "lng": -107.25717, "elevation": 7830.0, "state": "Wyoming"}, {"type": "snotel", "tripletID": "1035:AK:SNTL", "name": "Moraine", "lat": 61.37727, "lng": -148.99917, "elevation": 2010.0, "state": "Alaska"}, {"type": "snotel", "tripletID": "716:WY:SNTL", "name": "Reno Hill", "lat": 42.57111, "lng": -106.08889, "elevation": 8410.0, "state": "Wyoming"}, {"type": "snotel", "tripletID": "949:AK:SNTL", "name": "Monument Creek", "lat": 65.07833, "lng": -145.87067, "elevation": 1840.0, "state": "Alaska"}, {"type": "snotel", "tripletID": "703:WY:SNTL", "name": "Powder River Pass", "lat": 44.16188, "lng": -107.12622, "elevation": 9480.0, "state": "Wyoming"}, {"type": "snotel", "tripletID": "1003:AK:SNTL", "name": "Mcneil Canyon", "lat": 59.74433, "lng": -151.25133, "elevation": 1350.0, "state": "Alaska"}, {"type": "snotel", "tripletID": "1133:WY:SNTL", "name": "Pocket Creek", "lat": 42.7121, "lng": -109.4112, "elevation": 9370.0, "state": "Wyoming"}, {"type": "snotel", "tripletID": "785:AK:SNTL", "name": "McGrath", "lat": 62.94652, "lng": -155.6102, "elevation": 340.0, "state": "Alaska"}, {"type": "snotel", "tripletID": "689:WY:SNTL", "name": "Phillips Bench", "lat": 43.51687, "lng": -110.91258, "elevation": 8170.0, "state": "Wyoming"}, {"type": "snotel", "tripletID": "1096:AK:SNTL", "name": "May Creek", "lat": 61.34783, "lng": -142.70967, "elevation": 1550.0, "state": "Alaska"}, {"type": "snotel", "tripletID": "683:WY:SNTL", "name": "Parker Peak", "lat": 44.73396, "lng": -109.91484, "elevation": 9420.0, "state": "Wyoming"}, {"type": "snotel", "tripletID": "1001:AK:SNTL", "name": "Long Lake", "lat": 58.186, "lng": -133.83217, "elevation": 840.0, "state": "Alaska"}, {"type": "snotel", "tripletID": "676:WY:SNTL", "name": "Owl Creek", "lat": 43.65868, "lng": -109.00988, "elevation": 8990.0, "state": "Wyoming"}, {"type": "snotel", "tripletID": "947:AK:SNTL", "name": "Little Chena Ridge", "lat": 65.12422, "lng": -146.7339, "elevation": 2150.0, "state": "Alaska"}, {"type": "snotel", "tripletID": "673:WY:SNTL", "name": "Old Battle", "lat": 41.15397, "lng": -106.96937, "elevation": 9840.0, "state": "Wyoming"}, {"type": "snotel", "tripletID": "966:AK:SNTL", "name": "Kenai Moose Pens", "lat": 60.727, "lng": -150.47517, "elevation": 290.0, "state": "Alaska"}, {"type": "snotel", "tripletID": "668:WY:SNTL", "name": "North French Creek", "lat": 41.3308, "lng": -106.37555, "elevation": 10150.0, "state": "Wyoming"}, {"type": "snotel", "tripletID": "1175:AK:SNTL", "name": "Kelly Station", "lat": 67.93333, "lng": -162.28333, "elevation": 300.0, "state": "Alaska"}, {"type": "snotel", "tripletID": "661:WY:SNTL", "name": "New Fork Lake", "lat": 43.11265, "lng": -109.94947, "elevation": 8380.0, "state": "Wyoming"}, {"type": "snotel", "tripletID": "1275:AK:SNTL", "name": "Jack Wade Jct", "lat": 64.1529, "lng": -141.32693, "elevation": 3660.0, "state": "Alaska"}, {"type": "snotel", "tripletID": "625:WY:SNTL", "name": "Middle Powder", "lat": 43.62728, "lng": -107.18138, "elevation": 7760.0, "state": "Wyoming"}, {"type": "snotel", "tripletID": "946:AK:SNTL", "name": "Indian Pass", "lat": 61.06767, "lng": -149.4795, "elevation": 2400.0, "state": "Alaska"}, {"type": "snotel", "tripletID": "1196:WY:SNTL", "name": "Med Bow", "lat": 41.37833, "lng": -106.34681, "elevation": 10500.0, "state": "Wyoming"}, {"type": "snotel", "tripletID": "1091:AK:SNTL", "name": "Independence Mine", "lat": 61.79117, "lng": -149.27967, "elevation": 3450.0, "state": "Alaska"}, {"type": "snotel", "tripletID": "616:WY:SNTL", "name": "Marquette", "lat": 44.3016, "lng": -109.24019, "elevation": 8800.0, "state": "Wyoming"}, {"type": "snotel", "tripletID": "1270:AK:SNTL", "name": "Heen Latinee", "lat": 58.69652, "lng": -134.86448, "elevation": 2100.0, "state": "Alaska"}, {"type": "snotel", "tripletID": "597:WY:SNTL", "name": "Loomis Park", "lat": 43.17387, "lng": -110.14007, "elevation": 8240.0, "state": "Wyoming"}, {"type": "snotel", "tripletID": "964:AK:SNTL", "name": "Grouse Creek Divide", "lat": 60.25965, "lng": -149.34228, "elevation": 720.0, "state": "Alaska"}, {"type": "snotel", "tripletID": "585:WY:SNTL", "name": "Little Warm", "lat": 43.50278, "lng": -109.752, "elevation": 9370.0, "state": "Wyoming"}, {"type": "snotel", "tripletID": "963:AK:SNTL", "name": "Granite Crk", "lat": 63.94382, "lng": -145.39993, "elevation": 1250.0, "state": "Alaska"}, {"type": "snotel", "tripletID": "1047:WY:SNTL", "name": "Little Snake River", "lat": 41.07053, "lng": -106.94283, "elevation": 8930.0, "state": "Wyoming"}, {"type": "snotel", "tripletID": "956:AK:SNTL", "name": "Grandview", "lat": 60.60832, "lng": -149.06313, "elevation": 1070.0, "state": "Alaska"}, {"type": "snotel", "tripletID": "1131:WY:SNTL", "name": "Little Goose", "lat": 44.54315, "lng": -107.17865, "elevation": 8560.0, "state": "Wyoming"}, {"type": "snotel", "tripletID": "429:AK:SNTL", "name": "Galena AK", "lat": 64.69662, "lng": -156.71497, "elevation": 340.0, "state": "Alaska"}, {"type": "snotel", "tripletID": "577:WY:SNTL", "name": "Lewis Lake Divide", "lat": 44.20862, "lng": -110.66628, "elevation": 7880.0, "state": "Wyoming"}, {"type": "snotel", "tripletID": "1285:AK:SNTL", "name": "Flower Mountain", "lat": 59.39617, "lng": -136.28123, "elevation": 2540.0, "state": "Alaska"}, {"type": "snotel", "tripletID": "1160:CO:SNTL", "name": "Weminuche Creek", "lat": 37.51976, "lng": -107.32152, "elevation": 10730.0, "state": "Colorado"}, {"type": "snotel", "tripletID": "1134:WY:SNTL", "name": "Larsen Creek", "lat": 42.5801, "lng": -109.0883, "elevation": 8880.0, "state": "Wyoming"}, {"type": "snotel", "tripletID": "1268:AK:SNTL", "name": "Fielding Lake", "lat": 63.20267, "lng": -145.6305, "elevation": 3000.0, "state": "Alaska"}, {"type": "snotel", "tripletID": "1188:CO:SNTL", "name": "Wager Gulch", "lat": 37.88248, "lng": -107.3643, "elevation": 11110.0, "state": "Colorado"}, {"type": "snotel", "tripletID": "571:WY:SNTL", "name": "Laprele Creek", "lat": 42.43583, "lng": -105.86083, "elevation": 8370.0, "state": "Wyoming"}, {"type": "snotel", "tripletID": "1174:AK:SNTL", "name": "1174:AK:SNTL", "lat": 64.85, "lng": -147.8, "elevation": null, "state": "Alaska"}, {"type": "snotel", "tripletID": "843:CO:SNTL", "name": "Vallecito", "lat": 37.4851, "lng": -107.5068, "elevation": 10740.0, "state": "Colorado"}, {"type": "snotel", "tripletID": "560:WY:SNTL", "name": "Kirwin", "lat": 43.86067, "lng": -109.32163, "elevation": 9580.0, "state": "Wyoming"}, {"type": "snotel", "tripletID": "1092:AK:SNTL", "name": "Exit Glacier", "lat": 60.19033, "lng": -149.62117, "elevation": 360.0, "state": "Alaska"}, {"type": "snotel", "tripletID": "842:CO:SNTL", "name": "Vail Mountain", "lat": 39.61676, "lng": -106.38006, "elevation": 10290.0, "state": "Colorado"}, {"type": "snotel", "tripletID": "555:WY:SNTL", "name": "Kendall R.S.", "lat": 43.2493, "lng": -110.01662, "elevation": 7790.0, "state": "Wyoming"}, {"type": "snotel", "tripletID": "959:AK:SNTL", "name": "Cooper Lake", "lat": 60.39027, "lng": -149.6936, "elevation": 1150.0, "state": "Alaska"}, {"type": "snotel", "tripletID": "1005:CO:SNTL", "name": "Ute Creek", "lat": 37.61497, "lng": -105.37327, "elevation": 10720.0, "state": "Colorado"}, {"type": "snotel", "tripletID": "554:WY:SNTL", "name": "Kelley R.S.", "lat": 42.26554, "lng": -110.80177, "elevation": 8240.0, "state": "Wyoming"}, {"type": "snotel", "tripletID": "958:AK:SNTL", "name": "Coldfoot", "lat": 67.25333, "lng": -150.183, "elevation": 1070.0, "state": "Alaska"}, {"type": "snotel", "tripletID": "1141:CO:SNTL", "name": "Upper Taylor", "lat": 38.99077, "lng": -106.75422, "elevation": 10710.0, "state": "Colorado"}, {"type": "snotel", "tripletID": "544:WY:SNTL", "name": "Indian Creek", "lat": 42.30023, "lng": -110.67753, "elevation": 9400.0, "state": "Wyoming"}, {"type": "snotel", "tripletID": "1093:AK:SNTL", "name": "Chisana", "lat": 62.069, "lng": -142.049, "elevation": 3320.0, "state": "Alaska"}, {"type": "snotel", "tripletID": "840:CO:SNTL", "name": "Upper San Juan", "lat": 37.48576, "lng": -106.83535, "elevation": 10140.0, "state": "Colorado"}, {"type": "snotel", "tripletID": "525:WY:SNTL", "name": "Hobbs Park", "lat": 42.86984, "lng": -109.09455, "elevation": 10080.0, "state": "Wyoming"}, {"type": "snotel", "tripletID": "1182:AK:SNTL", "name": "Bettles Field", "lat": 66.91667, "lng": -151.53333, "elevation": 640.0, "state": "Alaska"}, {"type": "snotel", "tripletID": "839:CO:SNTL", "name": "Upper Rio Grande", "lat": 37.72194, "lng": -107.26015, "elevation": 9370.0, "state": "Colorado"}, {"type": "snotel", "tripletID": "512:WY:SNTL", "name": "Hansen Sawmill", "lat": 44.25602, "lng": -106.97983, "elevation": 8360.0, "state": "Wyoming"}, {"type": "snotel", "tripletID": "1070:AK:SNTL", "name": "Anchorage Hillside", "lat": 61.11483, "lng": -149.66683, "elevation": 1910.0, "state": "Alaska"}, {"type": "snotel", "tripletID": "838:CO:SNTL", "name": "University Camp", "lat": 40.03279, "lng": -105.57615, "elevation": 10330.0, "state": "Colorado"}, {"type": "snotel", "tripletID": "509:WY:SNTL", "name": "Hams Fork", "lat": 42.146, "lng": -110.67833, "elevation": 7860.0, "state": "Wyoming"}, {"type": "snotel", "tripletID": "1062:AK:SNTL", "name": "Anchor River Divide", "lat": 59.85972, "lng": -151.315, "elevation": 1650.0, "state": "Alaska"}, {"type": "snotel", "tripletID": "829:CO:SNTL", "name": "Trinchera", "lat": 37.35328, "lng": -105.23233, "elevation": 10860.0, "state": "Colorado"}, {"type": "snotel", "tripletID": "944:WY:SNTL", "name": "Gunsight Pass", "lat": 43.38332, "lng": -109.87815, "elevation": 9820.0, "state": "Wyoming"}, {"type": "snotel", "tripletID": "1189:AK:SNTL", "name": "American Creek", "lat": 64.78969, "lng": -141.23376, "elevation": 1020.0, "state": "Alaska"}, {"type": "snotel", "tripletID": "827:CO:SNTL", "name": "Trapper Lake", "lat": 39.99884, "lng": -107.2362, "elevation": 9750.0, "state": "Colorado"}, {"type": "snotel", "tripletID": "506:WY:SNTL", "name": "Gros Ventre Summit", "lat": 43.38939, "lng": -110.12943, "elevation": 8760.0, "state": "Wyoming"}, {"type": "snotel", "tripletID": "1267:AK:SNTL", "name": "Alexander Lake", "lat": 61.74967, "lng": -150.88967, "elevation": 170.0, "state": "Alaska"}, {"type": "snotel", "tripletID": "825:CO:SNTL", "name": "Tower", "lat": 40.53743, "lng": -106.6768, "elevation": 10610.0, "state": "Colorado"}, {"type": "snotel", "tripletID": "501:WY:SNTL", "name": "Grave Springs", "lat": 43.46643, "lng": -107.23977, "elevation": 8560.0, "state": "Wyoming"}, {"type": "snotel", "tripletID": "802:CO:SNTL", "name": "Summit Ranch", "lat": 39.71796, "lng": -106.15802, "elevation": 9350.0, "state": "Colorado"}, {"type": "snotel", "tripletID": "499:WY:SNTL", "name": "Grassy Lake", "lat": 44.12612, "lng": -110.83435, "elevation": 7330.0, "state": "Wyoming"}, {"type": "snotel", "tripletID": "797:CO:SNTL", "name": "Stump Lakes", "lat": 37.47621, "lng": -107.63295, "elevation": 11230.0, "state": "Colorado"}, {"type": "snotel", "tripletID": "497:WY:SNTL", "name": "Granite Creek", "lat": 43.34298, "lng": -110.43495, "elevation": 6770.0, "state": "Wyoming"}, {"type": "snotel", "tripletID": "793:CO:SNTL", "name": "Stillwater Creek", "lat": 40.22543, "lng": -105.91977, "elevation": 8760.0, "state": "Colorado"}, {"type": "snotel", "tripletID": "1082:WY:SNTL", "name": "Grand Targhee", "lat": 43.77933, "lng": -110.92783, "elevation": 9260.0, "state": "Wyoming"}, {"type": "snotel", "tripletID": "780:CO:SNTL", "name": "Spud Mountain", "lat": 37.69866, "lng": -107.77715, "elevation": 10660.0, "state": "Colorado"}, {"type": "snotel", "tripletID": "472:WY:SNTL", "name": "Evening Star", "lat": 44.65258, "lng": -109.78422, "elevation": 9030.0, "state": "Wyoming"}, {"type": "snotel", "tripletID": "773:CO:SNTL", "name": "South Colony", "lat": 37.96811, "lng": -105.53787, "elevation": 10790.0, "state": "Colorado"}, {"type": "snotel", "tripletID": "468:WY:SNTL", "name": "Elkhart Park G.S.", "lat": 43.00657, "lng": -109.75893, "elevation": 9410.0, "state": "Wyoming"}, {"type": "snotel", "tripletID": "762:CO:SNTL", "name": "Slumgullion", "lat": 37.9908, "lng": -107.20327, "elevation": 11560.0, "state": "Colorado"}, {"type": "snotel", "tripletID": "460:WY:SNTL", "name": "East Rim Divide", "lat": 43.13097, "lng": -110.2023, "elevation": 8010.0, "state": "Wyoming"}, {"type": "snotel", "tripletID": "1060:CO:SNTL", "name": "Sharkstooth", "lat": 37.50357, "lng": -108.11373, "elevation": 10730.0, "state": "Colorado"}, {"type": "snotel", "tripletID": "451:WY:SNTL", "name": "Dome Lake", "lat": 44.57462, "lng": -107.29537, "elevation": 8890.0, "state": "Wyoming"}, {"type": "snotel", "tripletID": "739:CO:SNTL", "name": "Scotch Creek", "lat": 37.64556, "lng": -108.00786, "elevation": 9160.0, "state": "Colorado"}, {"type": "snotel", "tripletID": "449:WY:SNTL", "name": "Divide Peak", "lat": 41.30398, "lng": -107.15241, "elevation": 8700.0, "state": "Wyoming"}, {"type": "snotel", "tripletID": "737:CO:SNTL", "name": "Schofield Pass", "lat": 39.01522, "lng": -107.04877, "elevation": 10640.0, "state": "Colorado"}, {"type": "snotel", "tripletID": "923:WY:SNTL", "name": "Deer Park", "lat": 42.59076, "lng": -108.90273, "elevation": 9690.0, "state": "Wyoming"}, {"type": "snotel", "tripletID": "1251:CO:SNTL", "name": "Sawtooth", "lat": 40.13697, "lng": -105.58625, "elevation": 9640.0, "state": "Colorado"}, {"type": "snotel", "tripletID": "1045:WY:SNTL", "name": "Crow Creek", "lat": 41.2287, "lng": -105.38278, "elevation": 8320.0, "state": "Wyoming"}, {"type": "snotel", "tripletID": "1128:CO:SNTL", "name": "Sargents Mesa", "lat": 38.28555, "lng": -106.37069, "elevation": 11490.0, "state": "Colorado"}, {"type": "snotel", "tripletID": "419:WY:SNTL", "name": "Cottonwood Creek", "lat": 42.6459, "lng": -110.81482, "elevation": 7710.0, "state": "Wyoming"}, {"type": "snotel", "tripletID": "1100:CO:SNTL", "name": "Saint Elmo", "lat": 38.69978, "lng": -106.36801, "elevation": 10420.0, "state": "Colorado"}, {"type": "snotel", "tripletID": "982:WY:SNTL", "name": "Cole Canyon", "lat": 44.48632, "lng": -104.41057, "elevation": 5930.0, "state": "Wyoming"}, {"type": "snotel", "tripletID": "939:CO:SNTL", "name": "Rough And Tumble", "lat": 39.03333, "lng": -106.08333, "elevation": 10420.0, "state": "Colorado"}, {"type": "snotel", "tripletID": "405:WY:SNTL", "name": "Cold Springs", "lat": 43.27676, "lng": -109.44585, "elevation": 9640.0, "state": "Wyoming"}, {"type": "snotel", "tripletID": "718:CO:SNTL", "name": "Roach", "lat": 40.87502, "lng": -106.04603, "elevation": 9710.0, "state": "Colorado"}, {"type": "snotel", "tripletID": "402:WY:SNTL", "name": "Cloud Peak Reservoir", "lat": 44.40343, "lng": -107.06057, "elevation": 9830.0, "state": "Wyoming"}, {"type": "snotel", "tripletID": "717:CO:SNTL", "name": "Ripple Creek", "lat": 40.10812, "lng": -107.29411, "elevation": 10340.0, "state": "Colorado"}, {"type": "snotel", "tripletID": "1046:WY:SNTL", "name": "Cinnabar Park", "lat": 41.23837, "lng": -106.23095, "elevation": 9670.0, "state": "Wyoming"}, {"type": "snotel", "tripletID": "713:CO:SNTL", "name": "Red Mountain Pass", "lat": 37.8918, "lng": -107.71342, "elevation": 11060.0, "state": "Colorado"}, {"type": "snotel", "tripletID": "1130:WY:SNTL", "name": "Castle Creek", "lat": 43.6748, "lng": -109.3774, "elevation": 8410.0, "state": "Wyoming"}, {"type": "snotel", "tripletID": "1032:CO:SNTL", "name": "Rawah", "lat": 40.7075, "lng": -106.0076, "elevation": 9100.0, "state": "Colorado"}, {"type": "snotel", "tripletID": "389:WY:SNTL", "name": "Casper Mtn.", "lat": 42.73389, "lng": -106.31861, "elevation": 7940.0, "state": "Wyoming"}, {"type": "snotel", "tripletID": "709:CO:SNTL", "name": "Rabbit Ears", "lat": 40.36783, "lng": -106.74038, "elevation": 9390.0, "state": "Colorado"}, {"type": "snotel", "tripletID": "384:WY:SNTL", "name": "Canyon", "lat": 44.71961, "lng": -110.51084, "elevation": 7870.0, "state": "Wyoming"}, {"type": "snotel", "tripletID": "701:CO:SNTL", "name": "Porphyry Creek", "lat": 38.48884, "lng": -106.33965, "elevation": 10790.0, "state": "Colorado"}, {"type": "snotel", "tripletID": "379:WY:SNTL", "name": "Burroughs Creek", "lat": 43.69733, "lng": -109.67021, "elevation": 8760.0, "state": "Wyoming"}, {"type": "snotel", "tripletID": "688:CO:SNTL", "name": "Phantom Valley", "lat": 40.39937, "lng": -105.84757, "elevation": 9030.0, "state": "Colorado"}, {"type": "snotel", "tripletID": "377:WY:SNTL", "name": "Burgess Junction", "lat": 44.78765, "lng": -107.52917, "elevation": 7910.0, "state": "Wyoming"}, {"type": "snotel", "tripletID": "682:CO:SNTL", "name": "Park Reservoir", "lat": 39.04644, "lng": -107.87414, "elevation": 9990.0, "state": "Colorado"}, {"type": "snotel", "tripletID": "367:WY:SNTL", "name": "Brooklyn Lake", "lat": 41.35885, "lng": -106.23209, "elevation": 10250.0, "state": "Wyoming"}, {"type": "snotel", "tripletID": "680:CO:SNTL", "name": "Park Cone", "lat": 38.81996, "lng": -106.58974, "elevation": 9600.0, "state": "Colorado"}, {"type": "snotel", "tripletID": "358:WY:SNTL", "name": "Bone Springs Div", "lat": 44.67888, "lng": -107.5811, "elevation": 9340.0, "state": "Wyoming"}, {"type": "snotel", "tripletID": "675:CO:SNTL", "name": "Overland Res.", "lat": 39.09056, "lng": -107.63472, "elevation": 9890.0, "state": "Colorado"}, {"type": "snotel", "tripletID": "353:WY:SNTL", "name": "Blind Bull Sum", "lat": 42.964, "lng": -110.60973, "elevation": 8880.0, "state": "Wyoming"}, {"type": "snotel", "tripletID": "669:CO:SNTL", "name": "North Lost Trail", "lat": 39.07813, "lng": -107.14389, "elevation": 9190.0, "state": "Colorado"}, {"type": "snotel", "tripletID": "350:WY:SNTL", "name": "Blackwater", "lat": 44.37667, "lng": -109.79333, "elevation": 9830.0, "state": "Wyoming"}, {"type": "snotel", "tripletID": "663:CO:SNTL", "name": "Niwot", "lat": 40.03523, "lng": -105.54426, "elevation": 9940.0, "state": "Colorado"}, {"type": "snotel", "tripletID": "1119:WY:SNTL", "name": "Blackhall Mtn", "lat": 41.05616, "lng": -106.71384, "elevation": 9830.0, "state": "Wyoming"}, {"type": "snotel", "tripletID": "1031:CO:SNTL", "name": "Never Summer", "lat": 40.40405, "lng": -105.95583, "elevation": 10300.0, "state": "Colorado"}, {"type": "snotel", "tripletID": "342:WY:SNTL", "name": "Big Sandy Opening", "lat": 42.6458, "lng": -109.25965, "elevation": 9100.0, "state": "Wyoming"}, {"type": "snotel", "tripletID": "658:CO:SNTL", "name": "Nast Lake", "lat": 39.29722, "lng": -106.60694, "elevation": 8710.0, "state": "Colorado"}, {"type": "snotel", "tripletID": "931:WY:SNTL", "name": "Big Goose", "lat": 44.57924, "lng": -107.20068, "elevation": 8010.0, "state": "Wyoming"}, {"type": "snotel", "tripletID": "1124:CO:SNTL", "name": "Moon Pass", "lat": 37.96661, "lng": -106.55837, "elevation": 11110.0, "state": "Colorado"}, {"type": "snotel", "tripletID": "326:WY:SNTL", "name": "Beartooth Lake", "lat": 44.94307, "lng": -109.56743, "elevation": 9360.0, "state": "Wyoming"}, {"type": "snotel", "tripletID": "632:CO:SNTL", "name": "Molas Lake", "lat": 37.74932, "lng": -107.68866, "elevation": 10610.0, "state": "Colorado"}, {"type": "snotel", "tripletID": "325:WY:SNTL", "name": "Bear Trap Meadow", "lat": 43.88743, "lng": -107.06135, "elevation": 8200.0, "state": "Wyoming"}, {"type": "snotel", "tripletID": "629:CO:SNTL", "name": "Mineral Creek", "lat": 37.84747, "lng": -107.72657, "elevation": 10030.0, "state": "Colorado"}, {"type": "snotel", "tripletID": "317:WY:SNTL", "name": "Battle Mountain", "lat": 41.05413, "lng": -107.26609, "elevation": 7460.0, "state": "Wyoming"}, {"type": "snotel", "tripletID": "1014:CO:SNTL", "name": "Middle Fork Camp", "lat": 39.7956, "lng": -106.0273, "elevation": 8960.0, "state": "Colorado"}, {"type": "snotel", "tripletID": "314:WY:SNTL", "name": "Base Camp", "lat": 43.94019, "lng": -110.44544, "elevation": 7040.0, "state": "Wyoming"}, {"type": "snotel", "tripletID": "624:CO:SNTL", "name": "Middle Creek", "lat": 37.61978, "lng": -107.03482, "elevation": 11260.0, "state": "Colorado"}, {"type": "snotel", "tripletID": "309:WY:SNTL", "name": "Bald Mtn.", "lat": 44.8007, "lng": -107.84442, "elevation": 9360.0, "state": "Wyoming"}, {"type": "snotel", "tripletID": "937:CO:SNTL", "name": "Michigan Creek", "lat": 39.43577, "lng": -105.91078, "elevation": 10700.0, "state": "Colorado"}, {"type": "snotel", "tripletID": "863:WA:SNTL", "name": "White Pass E.S.", "lat": 46.64142, "lng": -121.38153, "elevation": 4440.0, "state": "Washington"}, {"type": "snotel", "tripletID": "622:CO:SNTL", "name": "Mesa Lakes", "lat": 39.05831, "lng": -108.05835, "elevation": 10160.0, "state": "Colorado"}, {"type": "snotel", "tripletID": "909:WA:SNTL", "name": "Wells Creek", "lat": 48.8661, "lng": -121.78976, "elevation": 4040.0, "state": "Washington"}, {"type": "snotel", "tripletID": "914:CO:SNTL", "name": "Medano Pass", "lat": 37.85164, "lng": -105.43614, "elevation": 9650.0, "state": "Colorado"}, {"type": "snotel", "tripletID": "974:WA:SNTL", "name": "Waterhole", "lat": 47.94485, "lng": -123.42594, "elevation": 5010.0, "state": "Washington"}, {"type": "snotel", "tripletID": "1040:CO:SNTL", "name": "Mccoy Park", "lat": 39.60468, "lng": -106.54128, "elevation": 9500.0, "state": "Colorado"}, {"type": "snotel", "tripletID": "841:WA:SNTL", "name": "Upper Wheeler", "lat": 47.28734, "lng": -120.37015, "elevation": 4330.0, "state": "Washington"}, {"type": "snotel", "tripletID": "618:CO:SNTL", "name": "Mc Clure Pass", "lat": 39.12897, "lng": -107.28806, "elevation": 8760.0, "state": "Colorado"}, {"type": "snotel", "tripletID": "832:WA:SNTL", "name": "Trough", "lat": 47.23328, "lng": -120.29412, "elevation": 5480.0, "state": "Washington"}, {"type": "snotel", "tripletID": "905:CO:SNTL", "name": "Mancos", "lat": 37.43087, "lng": -108.16954, "elevation": 10020.0, "state": "Colorado"}, {"type": "snotel", "tripletID": "1171:WA:SNTL", "name": "Trinity", "lat": 48.0747, "lng": -120.8493, "elevation": 2890.0, "state": "Washington"}, {"type": "snotel", "tripletID": "607:CO:SNTL", "name": "Lynx Pass", "lat": 40.07806, "lng": -106.67028, "elevation": 8910.0, "state": "Colorado"}, {"type": "snotel", "tripletID": "824:WA:SNTL", "name": "Touchet", "lat": 46.11868, "lng": -117.8505, "elevation": 5520.0, "state": "Washington"}, {"type": "snotel", "tripletID": "602:CO:SNTL", "name": "Loveland Basin", "lat": 39.67433, "lng": -105.90133, "elevation": 11410.0, "state": "Colorado"}, {"type": "snotel", "tripletID": "899:WA:SNTL", "name": "Tinkham Creek", "lat": 47.33198, "lng": -121.46975, "elevation": 3000.0, "state": "Washington"}, {"type": "snotel", "tripletID": "940:CO:SNTL", "name": "Lost Dog", "lat": 40.81588, "lng": -106.74835, "elevation": 9350.0, "state": "Colorado"}, {"type": "snotel", "tripletID": "817:WA:SNTL", "name": "Thunder Basin", "lat": 48.52753, "lng": -120.9895, "elevation": 4310.0, "state": "Washington"}, {"type": "snotel", "tripletID": "1123:CO:SNTL", "name": "Long Draw Resv", "lat": 40.5123, "lng": -105.7656, "elevation": 9980.0, "state": "Colorado"}, {"type": "snotel", "tripletID": "1012:WA:SNTL", "name": "Swift Creek", "lat": 46.1638, "lng": -122.18402, "elevation": 4440.0, "state": "Washington"}, {"type": "snotel", "tripletID": "589:CO:SNTL", "name": "Lone Cone", "lat": 37.89183, "lng": -108.19544, "elevation": 9730.0, "state": "Colorado"}, {"type": "snotel", "tripletID": "975:WA:SNTL", "name": "Swamp Creek", "lat": 48.57142, "lng": -120.78267, "elevation": 3930.0, "state": "Washington"}, {"type": "snotel", "tripletID": "586:CO:SNTL", "name": "Lizard Head Pass", "lat": 37.79926, "lng": -107.92426, "elevation": 10190.0, "state": "Colorado"}, {"type": "snotel", "tripletID": "804:WA:SNTL", "name": "Surprise Lakes", "lat": 46.09497, "lng": -121.76345, "elevation": 4280.0, "state": "Washington"}, {"type": "snotel", "tripletID": "580:CO:SNTL", "name": "Lily Pond", "lat": 37.37929, "lng": -106.54835, "elevation": 11070.0, "state": "Colorado"}, {"type": "snotel", "tripletID": "791:WA:SNTL", "name": "Stevens Pass", "lat": 47.74607, "lng": -121.09288, "elevation": 3940.0, "state": "Washington"}, {"type": "snotel", "tripletID": "565:CO:SNTL", "name": "Lake Irene", "lat": 40.41432, "lng": -105.8198, "elevation": 10680.0, "state": "Colorado"}, {"type": "snotel", "tripletID": "788:WA:SNTL", "name": "Stampede Pass", "lat": 47.27427, "lng": -121.34162, "elevation": 3850.0, "state": "Washington"}, {"type": "snotel", "tripletID": "564:CO:SNTL", "name": "Lake Eldora", "lat": 39.93678, "lng": -105.58956, "elevation": 9700.0, "state": "Colorado"}, {"type": "snotel", "tripletID": "984:WA:SNTL", "name": "Spruce Springs", "lat": 46.18287, "lng": -117.54155, "elevation": 5690.0, "state": "Washington"}, {"type": "snotel", "tripletID": "556:CO:SNTL", "name": "Kiln", "lat": 39.31724, "lng": -106.61453, "elevation": 9610.0, "state": "Colorado"}, {"type": "snotel", "tripletID": "777:WA:SNTL", "name": "Spirit Lake", "lat": 46.26113, "lng": -122.1772, "elevation": 3520.0, "state": "Washington"}, {"type": "snotel", "tripletID": "970:CO:SNTL", "name": "Jones Pass", "lat": 39.7645, "lng": -105.90623, "elevation": 10430.0, "state": "Colorado"}, {"type": "snotel", "tripletID": "776:WA:SNTL", "name": "Spencer Meadow", "lat": 46.1795, "lng": -121.92661, "elevation": 3400.0, "state": "Washington"}, {"type": "snotel", "tripletID": "551:CO:SNTL", "name": "Joe Wright", "lat": 40.53215, "lng": -105.887, "elevation": 10140.0, "state": "Colorado"}, {"type": "snotel", "tripletID": "985:WA:SNTL", "name": "Sourdough Gulch", "lat": 46.23718, "lng": -117.39438, "elevation": 3960.0, "state": "Washington"}, {"type": "snotel", "tripletID": "935:CO:SNTL", "name": "Jackwhacker Gulch", "lat": 39.56667, "lng": -105.8, "elevation": 11030.0, "state": "Colorado"}, {"type": "snotel", "tripletID": "912:WA:SNTL", "name": "Skookum Creek", "lat": 47.68433, "lng": -121.61007, "elevation": 3320.0, "state": "Washington"}, {"type": "snotel", "tripletID": "547:CO:SNTL", "name": "Ivanhoe", "lat": 39.29202, "lng": -106.54923, "elevation": 10540.0, "state": "Colorado"}, {"type": "snotel", "tripletID": "1257:WA:SNTL", "name": "Skate Creek", "lat": 46.64336, "lng": -121.83044, "elevation": 3770.0, "state": "Washington"}, {"type": "snotel", "tripletID": "542:CO:SNTL", "name": "Independence Pass", "lat": 39.07539, "lng": -106.61169, "elevation": 10570.0, "state": "Colorado"}, {"type": "snotel", "tripletID": "748:WA:SNTL", "name": "Sheep Canyon", "lat": 46.19325, "lng": -122.25393, "elevation": 3990.0, "state": "Washington"}, {"type": "snotel", "tripletID": "538:CO:SNTL", "name": "Idarado", "lat": 37.9339, "lng": -107.67552, "elevation": 9780.0, "state": "Colorado"}, {"type": "snotel", "tripletID": "1043:WA:SNTL", "name": "Sentinel Butte", "lat": 48.86133, "lng": -118.39843, "elevation": 4680.0, "state": "Washington"}, {"type": "snotel", "tripletID": "1122:CO:SNTL", "name": "Hourglass Lake", "lat": 40.57913, "lng": -105.63068, "elevation": 9380.0, "state": "Colorado"}, {"type": "snotel", "tripletID": "1068:WA:SNTL", "name": "Sawmill Ridge", "lat": 47.15992, "lng": -121.42172, "elevation": 4640.0, "state": "Washington"}, {"type": "snotel", "tripletID": "531:CO:SNTL", "name": "Hoosier Pass", "lat": 39.36127, "lng": -106.05978, "elevation": 11600.0, "state": "Colorado"}, {"type": "snotel", "tripletID": "1231:WA:SNTL", "name": "Satus Pass", "lat": 45.98797, "lng": -120.67734, "elevation": 3960.0, "state": "Washington"}, {"type": "snotel", "tripletID": "1187:CO:SNTL", "name": "High Lonesome", "lat": 40.03592, "lng": -105.75471, "elevation": 10630.0, "state": "Colorado"}, {"type": "snotel", "tripletID": "734:WA:SNTL", "name": "Sasse Ridge", "lat": 47.38485, "lng": -121.06323, "elevation": 4340.0, "state": "Washington"}, {"type": "snotel", "tripletID": "1102:CO:SNTL", "name": "Hayden Pass", "lat": 38.29326, "lng": -105.8505, "elevation": 10700.0, "state": "Colorado"}, {"type": "snotel", "tripletID": "728:WA:SNTL", "name": "Salmon Meadows", "lat": 48.65518, "lng": -119.8383, "elevation": 4460.0, "state": "Washington"}, {"type": "snotel", "tripletID": "505:CO:SNTL", "name": "Grizzly Peak", "lat": 39.64631, "lng": -105.86973, "elevation": 11110.0, "state": "Colorado"}, {"type": "snotel", "tripletID": "911:WA:SNTL", "name": "Rex River", "lat": 47.30218, "lng": -121.60475, "elevation": 3810.0, "state": "Washington"}, {"type": "snotel", "tripletID": "1058:CO:SNTL", "name": "Grayback", "lat": 37.47033, "lng": -106.53783, "elevation": 11620.0, "state": "Colorado"}, {"type": "snotel", "tripletID": "711:WA:SNTL", "name": "Rainy Pass", "lat": 48.51865, "lng": -120.7358, "elevation": 4880.0, "state": "Washington"}, {"type": "snotel", "tripletID": "1057:CO:SNTL", "name": "Glen Cove", "lat": 38.87583, "lng": -105.07367, "elevation": 11410.0, "state": "Colorado"}, {"type": "snotel", "tripletID": "707:WA:SNTL", "name": "Quartz Peak", "lat": 47.87927, "lng": -117.08938, "elevation": 4710.0, "state": "Washington"}, {"type": "snotel", "tripletID": "485:CO:SNTL", "name": "Fremont Pass", "lat": 39.37991, "lng": -106.19681, "elevation": 11310.0, "state": "Colorado"}, {"type": "snotel", "tripletID": "702:WA:SNTL", "name": "Potato Hill", "lat": 46.34963, "lng": -121.51435, "elevation": 4480.0, "state": "Washington"}, {"type": "snotel", "tripletID": "1186:CO:SNTL", "name": "Fool Creek", "lat": 39.8687, "lng": -105.8675, "elevation": 11130.0, "state": "Colorado"}, {"type": "snotel", "tripletID": "699:WA:SNTL", "name": "Pope Ridge", "lat": 47.9909, "lng": -120.56622, "elevation": 3590.0, "state": "Washington"}, {"type": "snotel", "tripletID": "1120:CO:SNTL", "name": "Elliot Ridge", "lat": 39.864, "lng": -106.4246, "elevation": 10550.0, "state": "Colorado"}, {"type": "snotel", "tripletID": "1263:WA:SNTL", "name": "Pinto Rock", "lat": 46.32318, "lng": -121.94219, "elevation": 4450.0, "state": "Washington"}, {"type": "snotel", "tripletID": "1252:CO:SNTL", "name": "Elkhead Divide", "lat": 40.79649, "lng": -107.10122, "elevation": 8780.0, "state": "Colorado"}, {"type": "snotel", "tripletID": "692:WA:SNTL", "name": "Pigtail Peak", "lat": 46.62153, "lng": -121.38643, "elevation": 5800.0, "state": "Washington"}, {"type": "snotel", "tripletID": "467:CO:SNTL", "name": "Elk River", "lat": 40.84781, "lng": -106.96871, "elevation": 8710.0, "state": "Colorado"}, {"type": "snotel", "tripletID": "1104:WA:SNTL", "name": "Pepper Creek", "lat": 46.10242, "lng": -121.95555, "elevation": 2140.0, "state": "Washington"}, {"type": "snotel", "tripletID": "465:CO:SNTL", "name": "El Diente Peak", "lat": 37.78617, "lng": -108.02155, "elevation": 10210.0, "state": "Colorado"}, {"type": "snotel", "tripletID": "681:WA:SNTL", "name": "Park Creek Ridge", "lat": 48.44488, "lng": -120.91551, "elevation": 4610.0, "state": "Washington"}, {"type": "snotel", "tripletID": "936:CO:SNTL", "name": "Echo Lake", "lat": 39.65627, "lng": -105.59345, "elevation": 10660.0, "state": "Colorado"}, {"type": "snotel", "tripletID": "679:WA:SNTL", "name": "Paradise", "lat": 46.78265, "lng": -121.74765, "elevation": 5150.0, "state": "Washington"}, {"type": "snotel", "tripletID": "457:CO:SNTL", "name": "Dry Lake", "lat": 40.53397, "lng": -106.7813, "elevation": 8240.0, "state": "Colorado"}, {"type": "snotel", "tripletID": "672:WA:SNTL", "name": "Olallie Meadows", "lat": 47.37406, "lng": -121.44213, "elevation": 4010.0, "state": "Washington"}, {"type": "snotel", "tripletID": "438:CO:SNTL", "name": "Deadman Hill", "lat": 40.80571, "lng": -105.76993, "elevation": 10240.0, "state": "Colorado"}, {"type": "snotel", "tripletID": "1259:WA:SNTL", "name": "Muckamuck", "lat": 48.58526, "lng": -119.86624, "elevation": 4470.0, "state": "Washington"}, {"type": "snotel", "tripletID": "431:CO:SNTL", "name": "Cumbres Trestle", "lat": 37.01878, "lng": -106.45179, "elevation": 10030.0, "state": "Colorado"}, {"type": "snotel", "tripletID": "941:WA:SNTL", "name": "Mowich", "lat": 46.92833, "lng": -121.95232, "elevation": 3170.0, "state": "Washington"}, {"type": "snotel", "tripletID": "430:CO:SNTL", "name": "Culebra #2", "lat": 37.20945, "lng": -105.19959, "elevation": 10560.0, "state": "Colorado"}, {"type": "snotel", "tripletID": "898:WA:SNTL", "name": "Mount Gardner", "lat": 47.35768, "lng": -121.56812, "elevation": 2930.0, "state": "Washington"}, {"type": "snotel", "tripletID": "426:CO:SNTL", "name": "Crosho", "lat": 40.16745, "lng": -107.0575, "elevation": 8960.0, "state": "Colorado"}, {"type": "snotel", "tripletID": "648:WA:SNTL", "name": "Mount Crag", "lat": 47.7637, "lng": -123.026, "elevation": 3960.0, "state": "Washington"}, {"type": "snotel", "tripletID": "415:CO:SNTL", "name": "Copper Mountain", "lat": 39.48954, "lng": -106.17095, "elevation": 10500.0, "state": "Colorado"}, {"type": "snotel", "tripletID": "644:WA:SNTL", "name": "Moses Mtn", "lat": 48.36163, "lng": -119.08159, "elevation": 5470.0, "state": "Washington"}, {"type": "snotel", "tripletID": "412:CO:SNTL", "name": "Copeland Lake", "lat": 40.20778, "lng": -105.56861, "elevation": 8570.0, "state": "Colorado"}, {"type": "snotel", "tripletID": "642:WA:SNTL", "name": "Morse Lake", "lat": 46.90585, "lng": -121.4827, "elevation": 5400.0, "state": "Washington"}, {"type": "snotel", "tripletID": "904:CO:SNTL", "name": "Columbus Basin", "lat": 37.44147, "lng": -108.02445, "elevation": 10780.0, "state": "Colorado"}, {"type": "snotel", "tripletID": "1011:WA:SNTL", "name": "MF Nooksack", "lat": 48.82453, "lng": -121.92951, "elevation": 4940.0, "state": "Washington"}, {"type": "snotel", "tripletID": "409:CO:SNTL", "name": "Columbine Pass", "lat": 38.41795, "lng": -108.38249, "elevation": 9160.0, "state": "Colorado"}, {"type": "snotel", "tripletID": "897:WA:SNTL", "name": "Meadows Pass", "lat": 47.28312, "lng": -121.47197, "elevation": 3230.0, "state": "Washington"}, {"type": "snotel", "tripletID": "408:CO:SNTL", "name": "Columbine", "lat": 40.3948, "lng": -106.60408, "elevation": 9170.0, "state": "Colorado"}, {"type": "snotel", "tripletID": "999:WA:SNTL", "name": "Marten Ridge", "lat": 48.76292, "lng": -121.69823, "elevation": 3520.0, "state": "Washington"}, {"type": "snotel", "tripletID": "1059:CO:SNTL", "name": "Cochetopa Pass", "lat": 38.16283, "lng": -106.59883, "elevation": 10020.0, "state": "Colorado"}, {"type": "snotel", "tripletID": "1069:WA:SNTL", "name": "Lynn Lake", "lat": 47.20172, "lng": -121.77972, "elevation": 3900.0, "state": "Washington"}, {"type": "snotel", "tripletID": "1101:CO:SNTL", "name": "Chapman Tunnel", "lat": 39.26217, "lng": -106.62931, "elevation": 10090.0, "state": "Colorado"}, {"type": "snotel", "tripletID": "606:WA:SNTL", "name": "Lyman Lake", "lat": 48.19798, "lng": -120.91678, "elevation": 5990.0, "state": "Washington"}, {"type": "snotel", "tripletID": "387:CO:SNTL", "name": "Cascade #2", "lat": 37.658, "lng": -107.80268, "elevation": 8990.0, "state": "Colorado"}, {"type": "snotel", "tripletID": "599:WA:SNTL", "name": "Lost Horse", "lat": 46.3575, "lng": -121.08095, "elevation": 5100.0, "state": "Washington"}, {"type": "snotel", "tripletID": "386:CO:SNTL", "name": "386:CO:SNTL", "lat": 37.65083, "lng": -107.80602, "elevation": null, "state": "Colorado"}, {"type": "snotel", "tripletID": "591:WA:SNTL", "name": "Lone Pine", "lat": 46.27143, "lng": -121.96288, "elevation": 3940.0, "state": "Washington"}, {"type": "snotel", "tripletID": "380:CO:SNTL", "name": "Butte", "lat": 38.89433, "lng": -106.953, "elevation": 10190.0, "state": "Colorado"}, {"type": "snotel", "tripletID": "553:WA:SNTL", "name": "June Lake", "lat": 46.14778, "lng": -122.15413, "elevation": 3440.0, "state": "Washington"}, {"type": "snotel", "tripletID": "378:CO:SNTL", "name": "Burro Mountain", "lat": 39.87505, "lng": -107.59853, "elevation": 9290.0, "state": "Colorado"}, {"type": "snotel", "tripletID": "1129:WA:SNTL", "name": "Indian Rock", "lat": 45.99077, "lng": -120.80767, "elevation": 5320.0, "state": "Washington"}, {"type": "snotel", "tripletID": "913:CO:SNTL", "name": "Buffalo Park", "lat": 40.22861, "lng": -106.59528, "elevation": 9240.0, "state": "Colorado"}, {"type": "snotel", "tripletID": "928:WA:SNTL", "name": "Huckleberry Creek", "lat": 47.06565, "lng": -121.58778, "elevation": 2250.0, "state": "Washington"}, {"type": "snotel", "tripletID": "938:CO:SNTL", "name": "Buckskin Joe", "lat": 39.3035, "lng": -106.11307, "elevation": 11160.0, "state": "Colorado"}, {"type": "snotel", "tripletID": "515:WA:SNTL", "name": "Harts Pass", "lat": 48.72047, "lng": -120.6586, "elevation": 6490.0, "state": "Washington"}, {"type": "snotel", "tripletID": "369:CO:SNTL", "name": "Brumley", "lat": 39.08766, "lng": -106.5417, "elevation": 10570.0, "state": "Colorado"}, {"type": "snotel", "tripletID": "507:WA:SNTL", "name": "Grouse Camp", "lat": 47.28107, "lng": -120.48771, "elevation": 5390.0, "state": "Washington"}, {"type": "snotel", "tripletID": "1161:CO:SNTL", "name": "Black Mountain", "lat": 40.888, "lng": -105.66397, "elevation": 8940.0, "state": "Colorado"}, {"type": "snotel", "tripletID": "502:WA:SNTL", "name": "Green Lake", "lat": 46.54741, "lng": -121.17093, "elevation": 5920.0, "state": "Washington"}, {"type": "snotel", "tripletID": "1185:CO:SNTL", "name": "Black Mesa", "lat": 37.78972, "lng": -108.18365, "elevation": 11580.0, "state": "Colorado"}, {"type": "snotel", "tripletID": "1256:WA:SNTL", "name": "Gold Mountain", "lat": 48.18934, "lng": -118.4559, "elevation": 4500.0, "state": "Washington"}, {"type": "snotel", "tripletID": "345:CO:SNTL", "name": "Bison Lake", "lat": 39.76487, "lng": -107.35681, "elevation": 10950.0, "state": "Colorado"}, {"type": "snotel", "tripletID": "1159:WA:SNTL", "name": "Gold Axe Camp", "lat": 48.9516, "lng": -118.9864, "elevation": 5380.0, "state": "Washington"}, {"type": "snotel", "tripletID": "335:CO:SNTL", "name": "Berthoud Summit", "lat": 39.80392, "lng": -105.77789, "elevation": 11300.0, "state": "Colorado"}, {"type": "snotel", "tripletID": "478:WA:SNTL", "name": "Fish Lake", "lat": 47.53565, "lng": -121.08553, "elevation": 3440.0, "state": "Washington"}, {"type": "snotel", "tripletID": "1041:CO:SNTL", "name": "Beaver Ck Village", "lat": 39.59917, "lng": -106.51142, "elevation": 8530.0, "state": "Colorado"}, {"type": "snotel", "tripletID": "910:WA:SNTL", "name": "Elbow Lake", "lat": 48.69092, "lng": -121.90893, "elevation": 3050.0, "state": "Washington"}, {"type": "snotel", "tripletID": "327:CO:SNTL", "name": "Beartown", "lat": 37.71409, "lng": -107.51212, "elevation": 11580.0, "state": "Colorado"}, {"type": "snotel", "tripletID": "998:WA:SNTL", "name": "Easy Pass", "lat": 48.85933, "lng": -121.43895, "elevation": 5280.0, "state": "Washington"}, {"type": "snotel", "tripletID": "1061:CO:SNTL", "name": "Bear River", "lat": 40.06153, "lng": -107.00955, "elevation": 9100.0, "state": "Colorado"}, {"type": "snotel", "tripletID": "943:WA:SNTL", "name": "Dungeness", "lat": 47.87224, "lng": -123.0788, "elevation": 3990.0, "state": "Washington"}, {"type": "snotel", "tripletID": "322:CO:SNTL", "name": "Bear Lake", "lat": 40.31118, "lng": -105.64483, "elevation": 9490.0, "state": "Colorado"}, {"type": "snotel", "tripletID": "420:WA:SNTL", "name": "Cougar Mountain", "lat": 47.27666, "lng": -121.67138, "elevation": 3210.0, "state": "Washington"}, {"type": "snotel", "tripletID": "1030:CO:SNTL", "name": "Arapaho Ridge", "lat": 40.35098, "lng": -106.38142, "elevation": 10960.0, "state": "Colorado"}, {"type": "snotel", "tripletID": "418:WA:SNTL", "name": "Corral Pass", "lat": 47.01872, "lng": -121.46464, "elevation": 5810.0, "state": "Washington"}, {"type": "snotel", "tripletID": "303:CO:SNTL", "name": "Apishapa", "lat": 37.33062, "lng": -105.06749, "elevation": 10000.0, "state": "Colorado"}, {"type": "snotel", "tripletID": "1085:WA:SNTL", "name": "Cayuse Pass", "lat": 46.86954, "lng": -121.5343, "elevation": 5260.0, "state": "Washington"}, {"type": "snotel", "tripletID": "1109:WA:SNTL", "name": "Calamity", "lat": 45.90362, "lng": -122.21633, "elevation": 2510.0, "state": "Washington"}, {"type": "snotel", "tripletID": "942:WA:SNTL", "name": "Burnt Mountain", "lat": 47.0444, "lng": -121.94032, "elevation": 4160.0, "state": "Washington"}, {"type": "snotel", "tripletID": "376:WA:SNTL", "name": "Bunchgrass Mdw", "lat": 48.68688, "lng": -117.17633, "elevation": 5020.0, "state": "Washington"}, {"type": "snotel", "tripletID": "375:WA:SNTL", "name": "Bumping Ridge", "lat": 46.81003, "lng": -121.33058, "elevation": 4600.0, "state": "Washington"}, {"type": "snotel", "tripletID": "1107:WA:SNTL", "name": "Buckinghorse", "lat": 47.7086, "lng": -123.45747, "elevation": 4850.0, "state": "Washington"}, {"type": "snotel", "tripletID": "990:WA:SNTL", "name": "Beaver Pass", "lat": 48.8793, "lng": -121.2555, "elevation": 3630.0, "state": "Washington"}, {"type": "snotel", "tripletID": "908:WA:SNTL", "name": "Alpine Meadows", "lat": 47.77957, "lng": -121.69847, "elevation": 3500.0, "state": "Washington"}, {"type": "snotel", "tripletID": "1197:UT:SNTL", "name": "Yankee Reservoir", "lat": 37.74797, "lng": -112.77495, "elevation": 8680.0, "state": "Utah"}, {"type": "snotel", "tripletID": "1228:UT:SNTL", "name": "Wrigley Creek", "lat": 39.13233, "lng": -111.35685, "elevation": 9330.0, "state": "Utah"}, {"type": "snotel", "tripletID": "865:UT:SNTL", "name": "Widtsoe #3", "lat": 37.83633, "lng": -111.88163, "elevation": 9640.0, "state": "Utah"}, {"type": "snotel", "tripletID": "864:UT:SNTL", "name": "White River #1", "lat": 39.9645, "lng": -110.98845, "elevation": 8620.0, "state": "Utah"}, {"type": "snotel", "tripletID": "853:UT:SNTL", "name": "Webster Flat", "lat": 37.575, "lng": -112.90155, "elevation": 9150.0, "state": "Utah"}, {"type": "snotel", "tripletID": "844:UT:SNTL", "name": "Vernon Creek", "lat": 39.93667, "lng": -112.41478, "elevation": 7310.0, "state": "Utah"}, {"type": "snotel", "tripletID": "1098:UT:SNTL", "name": "Usu Doc Daniel", "lat": 41.86425, "lng": -111.50603, "elevation": 8610.0, "state": "Utah"}, {"type": "snotel", "tripletID": "1227:UT:SNTL", "name": "Upper Joes Valley", "lat": 39.4155, "lng": -111.2491, "elevation": 8600.0, "state": "Utah"}, {"type": "snotel", "tripletID": "833:UT:SNTL", "name": "Trout Creek", "lat": 40.739, "lng": -109.6728, "elevation": 9440.0, "state": "Utah"}, {"type": "snotel", "tripletID": "828:UT:SNTL", "name": "Trial Lake", "lat": 40.678, "lng": -110.94873, "elevation": 9970.0, "state": "Utah"}, {"type": "snotel", "tripletID": "1033:CO:SNTL", "name": "Zirkel", "lat": 40.79488, "lng": -106.59535, "elevation": 9320.0, "state": "Colorado"}, {"type": "snotel", "tripletID": "1113:UT:SNTL", "name": "Tony Grove RS", "lat": 41.88573, "lng": -111.56918, "elevation": 6320.0, "state": "Utah"}, {"type": "snotel", "tripletID": "874:CO:SNTL", "name": "Wolf Creek Summit", "lat": 37.47922, "lng": -106.8017, "elevation": 10930.0, "state": "Colorado"}, {"type": "snotel", "tripletID": "823:UT:SNTL", "name": "Tony Grove Lake", "lat": 41.89833, "lng": -111.62957, "elevation": 8450.0, "state": "Utah"}, {"type": "snotel", "tripletID": "870:CO:SNTL", "name": "Willow Park", "lat": 40.43254, "lng": -105.73337, "elevation": 10710.0, "state": "Colorado"}, {"type": "snotel", "tripletID": "820:UT:SNTL", "name": "Timpanogos Divide", "lat": 40.42817, "lng": -111.61633, "elevation": 8180.0, "state": "Utah"}, {"type": "snotel", "tripletID": "869:CO:SNTL", "name": "Willow Creek Pass", "lat": 40.34703, "lng": -106.09433, "elevation": 9520.0, "state": "Colorado"}, {"type": "snotel", "tripletID": "1097:UT:SNTL", "name": "Timberline", "lat": 39.67712, "lng": -110.43395, "elevation": 8720.0, "state": "Utah"}, {"type": "snotel", "tripletID": "1042:CO:SNTL", "name": "Wild Basin", "lat": 40.20105, "lng": -105.60248, "elevation": 9410.0, "state": "Colorado"}, {"type": "snotel", "tripletID": "1226:UT:SNTL", "name": "Thistle Flat", "lat": 39.23803, "lng": -111.51998, "elevation": 8790.0, "state": "Utah"}, {"type": "snotel", "tripletID": "857:CO:SNTL", "name": "Whiskey Ck", "lat": 37.21411, "lng": -105.12245, "elevation": 10260.0, "state": "Colorado"}, {"type": "snotel", "tripletID": "814:UT:SNTL", "name": "Thaynes Canyon", "lat": 40.6235, "lng": -111.53322, "elevation": 9260.0, "state": "Utah"}, {"type": "snotel", "tripletID": "1013:UT:SNTL", "name": "Temple Fork", "lat": 41.793, "lng": -111.54605, "elevation": 7420.0, "state": "Utah"}, {"type": "snotel", "tripletID": "1247:UT:SNTL", "name": "Takka Wiiya", "lat": 39.74104, "lng": -113.98262, "elevation": 9110.0, "state": "Utah"}, {"type": "snotel", "tripletID": "1248:UT:SNTL", "name": "Suu Ranch", "lat": 37.59711, "lng": -112.92949, "elevation": 8050.0, "state": "Utah"}, {"type": "snotel", "tripletID": "1249:UT:SNTL", "name": "Sunflower Flat", "lat": 38.048, "lng": -111.33981, "elevation": 10010.0, "state": "Utah"}, {"type": "snotel", "tripletID": "795:UT:SNTL", "name": "Strawberry Divide", "lat": 40.16483, "lng": -111.20665, "elevation": 8100.0, "state": "Utah"}, {"type": "snotel", "tripletID": "790:UT:SNTL", "name": "Steel Creek Park", "lat": 40.90862, "lng": -110.50462, "elevation": 10140.0, "state": "Utah"}, {"type": "snotel", "tripletID": "1117:UT:SNTL", "name": "Spirit Lk", "lat": 40.83868, "lng": -110.00527, "elevation": 10240.0, "state": "Utah"}, {"type": "snotel", "tripletID": "766:UT:SNTL", "name": "Snowbird", "lat": 40.56914, "lng": -111.65852, "elevation": 9170.0, "state": "Utah"}, {"type": "snotel", "tripletID": "763:UT:SNTL", "name": "Smith  Morehouse", "lat": 40.78931, "lng": -111.09192, "elevation": 7640.0, "state": "Utah"}, {"type": "snotel", "tripletID": "742:UT:SNTL", "name": "Seeley Creek", "lat": 39.31042, "lng": -111.43297, "elevation": 9900.0, "state": "Utah"}, {"type": "snotel", "tripletID": "1280:UT:SNTL", "name": "Santaquin Meadows", "lat": 39.92076, "lng": -111.71802, "elevation": 7830.0, "state": "Utah"}, {"type": "snotel", "tripletID": "723:UT:SNTL", "name": "Rocky Basin-Settleme", "lat": 40.44293, "lng": -112.22377, "elevation": 8700.0, "state": "Utah"}, {"type": "snotel", "tripletID": "720:UT:SNTL", "name": "Rock Creek", "lat": 40.54875, "lng": -110.69292, "elevation": 7880.0, "state": "Utah"}, {"type": "snotel", "tripletID": "1217:UT:SNTL", "name": "Rees Flat", "lat": 39.49667, "lng": -111.72508, "elevation": 7190.0, "state": "Utah"}, {"type": "snotel", "tripletID": "1225:UT:SNTL", "name": "Redden Mine Lwr", "lat": 40.67505, "lng": -111.21765, "elevation": 8540.0, "state": "Utah"}, {"type": "snotel", "tripletID": "714:UT:SNTL", "name": "Red Pine Ridge", "lat": 39.45197, "lng": -111.27221, "elevation": 8990.0, "state": "Utah"}, {"type": "snotel", "tripletID": "694:UT:SNTL", "name": "Pine Creek", "lat": 38.88185, "lng": -112.24915, "elevation": 8730.0, "state": "Utah"}, {"type": "snotel", "tripletID": "691:UT:SNTL", "name": "Pickle Keg", "lat": 39.01219, "lng": -111.58259, "elevation": 9010.0, "state": "Utah"}, {"type": "snotel", "tripletID": "686:UT:SNTL", "name": "Payson R.S.", "lat": 39.92976, "lng": -111.63109, "elevation": 8050.0, "state": "Utah"}, {"type": "snotel", "tripletID": "971:UT:SNTL", "name": "Parrish Creek", "lat": 40.93417, "lng": -111.81372, "elevation": 7760.0, "state": "Utah"}, {"type": "snotel", "tripletID": "856:UT:SNTL", "name": "Parleys Upper", "lat": 40.70194, "lng": -111.60619, "elevation": 8330.0, "state": "Utah"}, {"type": "snotel", "tripletID": "684:UT:SNTL", "name": "Parleys Summit", "lat": 40.76184, "lng": -111.62917, "elevation": 7590.0, "state": "Utah"}, {"type": "snotel", "tripletID": "1148:UT:SNTL", "name": "Panguitch Lake RS", "lat": 37.70463, "lng": -112.65037, "elevation": 8300.0, "state": "Utah"}, {"type": "snotel", "tripletID": "1146:UT:SNTL", "name": "Oak Creek", "lat": 39.3485, "lng": -112.32639, "elevation": 7840.0, "state": "Utah"}, {"type": "snotel", "tripletID": "1269:UT:SNTL", "name": "Mt Pennell", "lat": 37.97793, "lng": -110.7933, "elevation": 9210.0, "state": "Utah"}, {"type": "snotel", "tripletID": "1224:UT:SNTL", "name": "Mt Baldy", "lat": 39.13648, "lng": -111.50527, "elevation": 9520.0, "state": "Utah"}, {"type": "snotel", "tripletID": "643:UT:SNTL", "name": "Mosby Mtn.", "lat": 40.60798, "lng": -109.8881, "elevation": 9550.0, "state": "Utah"}, {"type": "snotel", "tripletID": "634:UT:SNTL", "name": "Monte Cristo", "lat": 41.46547, "lng": -111.49688, "elevation": 8930.0, "state": "Utah"}, {"type": "snotel", "tripletID": "631:UT:SNTL", "name": "Mining Fork", "lat": 40.49384, "lng": -112.61141, "elevation": 8290.0, "state": "Utah"}, {"type": "snotel", "tripletID": "628:UT:SNTL", "name": "Mill-D North", "lat": 40.65883, "lng": -111.63683, "elevation": 8940.0, "state": "Utah"}, {"type": "snotel", "tripletID": "626:UT:SNTL", "name": "Midway Valley", "lat": 37.56933, "lng": -112.83849, "elevation": 9830.0, "state": "Utah"}, {"type": "snotel", "tripletID": "621:UT:SNTL", "name": "Merchant Valley", "lat": 38.30285, "lng": -112.43637, "elevation": 8710.0, "state": "Utah"}, {"type": "snotel", "tripletID": "612:UT:SNTL", "name": "Mammoth-Cottonwood", "lat": 39.68338, "lng": -111.31818, "elevation": 8710.0, "state": "Utah"}, {"type": "snotel", "tripletID": "972:UT:SNTL", "name": "Louis Meadow", "lat": 40.83033, "lng": -111.76457, "elevation": 6740.0, "state": "Utah"}, {"type": "snotel", "tripletID": "1118:UT:SNTL", "name": "Lost Creek Resv", "lat": 41.22155, "lng": -111.35947, "elevation": 6070.0, "state": "Utah"}, {"type": "snotel", "tripletID": "596:UT:SNTL", "name": "Lookout Peak", "lat": 40.83731, "lng": -111.70965, "elevation": 8150.0, "state": "Utah"}, {"type": "snotel", "tripletID": "593:UT:SNTL", "name": "Long Valley Jct", "lat": 37.48756, "lng": -112.51458, "elevation": 7460.0, "state": "Utah"}, {"type": "snotel", "tripletID": "592:UT:SNTL", "name": "Long Flat", "lat": 37.51255, "lng": -113.39661, "elevation": 7990.0, "state": "Utah"}, {"type": "snotel", "tripletID": "1261:UT:SNTL", "name": "Lonesome Beaver", "lat": 38.07, "lng": -110.77241, "elevation": 9530.0, "state": "Utah"}, {"type": "snotel", "tripletID": "583:UT:SNTL", "name": "Little Grassy", "lat": 37.48631, "lng": -113.84582, "elevation": 6070.0, "state": "Utah"}, {"type": "snotel", "tripletID": "582:UT:SNTL", "name": "Little Bear", "lat": 41.40562, "lng": -111.82607, "elevation": 6540.0, "state": "Utah"}, {"type": "snotel", "tripletID": "579:UT:SNTL", "name": "Lily Lake", "lat": 40.86493, "lng": -110.79813, "elevation": 9130.0, "state": "Utah"}, {"type": "snotel", "tripletID": "1056:UT:SNTL", "name": "Lightning Ridge", "lat": 41.35891, "lng": -111.48749, "elevation": 8200.0, "state": "Utah"}, {"type": "snotel", "tripletID": "1215:UT:SNTL", "name": "Lasal Mountain-Lower", "lat": 38.48167, "lng": -109.29164, "elevation": 8780.0, "state": "Utah"}, {"type": "snotel", "tripletID": "572:UT:SNTL", "name": "Lasal Mountain", "lat": 38.48226, "lng": -109.27198, "elevation": 9580.0, "state": "Utah"}, {"type": "snotel", "tripletID": "513:UT:SNTL", "name": "Lakefork Basin", "lat": 40.73785, "lng": -110.62121, "elevation": 10890.0, "state": "Utah"}, {"type": "snotel", "tripletID": "1116:UT:SNTL", "name": "Lakefork #3", "lat": 40.5502, "lng": -110.3529, "elevation": 8430.0, "state": "Utah"}, {"type": "snotel", "tripletID": "566:UT:SNTL", "name": "Lakefork #1", "lat": 40.59709, "lng": -110.43316, "elevation": 10120.0, "state": "Utah"}, {"type": "snotel", "tripletID": "561:UT:SNTL", "name": "Kolob", "lat": 37.52664, "lng": -113.05386, "elevation": 9250.0, "state": "Utah"}, {"type": "snotel", "tripletID": "1115:UT:SNTL", "name": "Klondike Narrows", "lat": 41.96769, "lng": -111.59713, "elevation": 7280.0, "state": "Utah"}, {"type": "snotel", "tripletID": "559:UT:SNTL", "name": "Kings Cabin", "lat": 40.71632, "lng": -109.54401, "elevation": 8740.0, "state": "Utah"}, {"type": "snotel", "tripletID": "557:UT:SNTL", "name": "Kimberly Mine", "lat": 38.48383, "lng": -112.39273, "elevation": 9110.0, "state": "Utah"}, {"type": "snotel", "tripletID": "1145:UT:SNTL", "name": "Kilfoil Creek", "lat": 41.24764, "lng": -111.41249, "elevation": 7230.0, "state": "Utah"}, {"type": "snotel", "tripletID": "1099:UT:SNTL", "name": "Jones Corral", "lat": 38.07125, "lng": -112.16788, "elevation": 9710.0, "state": "Utah"}, {"type": "snotel", "tripletID": "543:UT:SNTL", "name": "Wilbur Bench", "lat": 39.89166, "lng": -110.74604, "elevation": 9170.0, "state": "Utah"}, {"type": "snotel", "tripletID": "1216:UT:SNTL", "name": "Huntington Horse", "lat": 39.61774, "lng": -111.30576, "elevation": 9650.0, "state": "Utah"}, {"type": "snotel", "tripletID": "533:UT:SNTL", "name": "Horse Ridge", "lat": 41.31372, "lng": -111.44624, "elevation": 8210.0, "state": "Utah"}, {"type": "snotel", "tripletID": "528:UT:SNTL", "name": "Hole-in-Rock", "lat": 40.92167, "lng": -110.18623, "elevation": 9170.0, "state": "Utah"}, {"type": "snotel", "tripletID": "1223:UT:SNTL", "name": "Hobble Creek", "lat": 40.18538, "lng": -111.35971, "elevation": 7360.0, "state": "Utah"}, {"type": "snotel", "tripletID": "522:UT:SNTL", "name": "Hickerson Park", "lat": 40.90663, "lng": -109.96287, "elevation": 9120.0, "state": "Utah"}, {"type": "snotel", "tripletID": "521:UT:SNTL", "name": "Hewinta", "lat": 40.95009, "lng": -110.48419, "elevation": 9510.0, "state": "Utah"}, {"type": "snotel", "tripletID": "517:UT:SNTL", "name": "Hayden Fork", "lat": 40.79669, "lng": -110.88472, "elevation": 9170.0, "state": "Utah"}, {"type": "snotel", "tripletID": "514:UT:SNTL", "name": "Harris Flat", "lat": 37.48997, "lng": -112.57602, "elevation": 7800.0, "state": "Utah"}, {"type": "snotel", "tripletID": "896:UT:SNTL", "name": "Hardscrabble", "lat": 40.86833, "lng": -111.71865, "elevation": 7270.0, "state": "Utah"}, {"type": "snotel", "tripletID": "1065:UT:SNTL", "name": "Gutz Peak", "lat": 37.49617, "lng": -113.94235, "elevation": 6790.0, "state": "Utah"}, {"type": "snotel", "tripletID": "1184:UT:SNTL", "name": "Gooseberry RS Up", "lat": 38.7882, "lng": -111.68892, "elevation": 8400.0, "state": "Utah"}, {"type": "snotel", "tripletID": "495:UT:SNTL", "name": "Gooseberry RS", "lat": 38.80034, "lng": -111.68333, "elevation": 7930.0, "state": "Utah"}, {"type": "snotel", "tripletID": "1151:UT:SNTL", "name": "George Creek", "lat": 41.91562, "lng": -113.41154, "elevation": 8960.0, "state": "Utah"}, {"type": "snotel", "tripletID": "1222:UT:SNTL", "name": "GBRC Meadows", "lat": 39.30229, "lng": -111.45383, "elevation": 9850.0, "state": "Utah"}, {"type": "snotel", "tripletID": "1221:UT:SNTL", "name": "GBRC HQ", "lat": 39.32019, "lng": -111.48827, "elevation": 8800.0, "state": "Utah"}, {"type": "snotel", "tripletID": "1066:UT:SNTL", "name": "Gardner Peak", "lat": 37.40083, "lng": -113.45988, "elevation": 8320.0, "state": "Utah"}, {"type": "snotel", "tripletID": "1114:UT:SNTL", "name": "Garden City Summit", "lat": 41.9215, "lng": -111.4693, "elevation": 7680.0, "state": "Utah"}, {"type": "snotel", "tripletID": "481:UT:SNTL", "name": "Five Points Lake", "lat": 40.71785, "lng": -110.46721, "elevation": 10920.0, "state": "Utah"}, {"type": "snotel", "tripletID": "1149:UT:SNTL", "name": "Fish Lake Utah", "lat": 38.50455, "lng": -111.76693, "elevation": 8780.0, "state": "Utah"}, {"type": "snotel", "tripletID": "475:UT:SNTL", "name": "Farnsworth Lake", "lat": 38.77246, "lng": -111.67662, "elevation": 9620.0, "state": "Utah"}, {"type": "snotel", "tripletID": "1054:UT:SNTL", "name": "Farmington Lower", "lat": 40.992, "lng": -111.81702, "elevation": 6850.0, "state": "Utah"}, {"type": "snotel", "tripletID": "474:UT:SNTL", "name": "Farmington", "lat": 40.97462, "lng": -111.80975, "elevation": 7920.0, "state": "Utah"}, {"type": "snotel", "tripletID": "1163:UT:SNTL", "name": "EF Blacks Fork GS", "lat": 40.88472, "lng": -110.54056, "elevation": 9360.0, "state": "Utah"}, {"type": "snotel", "tripletID": "461:UT:SNTL", "name": "East Willow Creek", "lat": 39.31213, "lng": -109.53179, "elevation": 8300.0, "state": "Utah"}, {"type": "snotel", "tripletID": "906:UT:SNTL", "name": "Dry Fork", "lat": 40.56533, "lng": -112.17343, "elevation": 7180.0, "state": "Utah"}, {"type": "snotel", "tripletID": "455:UT:SNTL", "name": "Dry Bread Pond", "lat": 41.41289, "lng": -111.5377, "elevation": 8290.0, "state": "Utah"}, {"type": "snotel", "tripletID": "452:UT:SNTL", "name": "Donkey Reservoir", "lat": 38.2084, "lng": -111.47412, "elevation": 9800.0, "state": "Utah"}, {"type": "snotel", "tripletID": "444:UT:SNTL", "name": "Dills Camp", "lat": 39.04554, "lng": -111.46875, "elevation": 9240.0, "state": "Utah"}, {"type": "snotel", "tripletID": "435:UT:SNTL", "name": "Daniels-Strawberry", "lat": 40.2953, "lng": -111.25677, "elevation": 8010.0, "state": "Utah"}, {"type": "snotel", "tripletID": "432:UT:SNTL", "name": "Currant Creek", "lat": 40.35747, "lng": -111.08993, "elevation": 7920.0, "state": "Utah"}, {"type": "snotel", "tripletID": "1236:UT:SNTL", "name": "Corral", "lat": 39.65795, "lng": -110.37906, "elevation": 8210.0, "state": "Utah"}, {"type": "snotel", "tripletID": "1080:WA:SNTL", "name": "Brown Top", "lat": 48.92755, "lng": -121.19713, "elevation": 5850.0, "state": "Washington"}, {"type": "snotel", "tripletID": "400:UT:SNTL", "name": "Clear Creek #2", "lat": 39.89275, "lng": -111.25154, "elevation": 7850.0, "state": "Utah"}, {"type": "snotel", "tripletID": "399:UT:SNTL", "name": "Clear Creek #1", "lat": 39.86671, "lng": -111.28363, "elevation": 8960.0, "state": "Utah"}, {"type": "snotel", "tripletID": "983:UT:SNTL", "name": "Clayton Springs", "lat": 37.9725, "lng": -111.83355, "elevation": 10010.0, "state": "Utah"}, {"type": "snotel", "tripletID": "396:UT:SNTL", "name": "Chepeta", "lat": 40.77458, "lng": -110.0105, "elevation": 10490.0, "state": "Utah"}, {"type": "snotel", "tripletID": "393:UT:SNTL", "name": "Chalk Creek #2", "lat": 40.88529, "lng": -111.06954, "elevation": 8200.0, "state": "Utah"}, {"type": "snotel", "tripletID": "352:WA:SNTL", "name": "Blewett Pass", "lat": 47.35037, "lng": -120.6796, "elevation": 4240.0, "state": "Washington"}, {"type": "snotel", "tripletID": "392:UT:SNTL", "name": "Chalk Creek #1", "lat": 40.85464, "lng": -111.04765, "elevation": 9160.0, "state": "Utah"}, {"type": "snotel", "tripletID": "390:UT:SNTL", "name": "Castle Valley", "lat": 37.66098, "lng": -112.74093, "elevation": 9600.0, "state": "Utah"}, {"type": "snotel", "tripletID": "1039:UT:SNTL", "name": "Cascade Mountain", "lat": 40.283, "lng": -111.60992, "elevation": 7750.0, "state": "Utah"}, {"type": "snotel", "tripletID": "383:UT:SNTL", "name": "Camp Jackson", "lat": 37.81333, "lng": -109.48723, "elevation": 8840.0, "state": "Utah"}, {"type": "snotel", "tripletID": "1135:UT:SNTL", "name": "Burts Miller Ranch", "lat": 40.98492, "lng": -110.85075, "elevation": 7900.0, "state": "Utah"}, {"type": "snotel", "tripletID": "374:UT:SNTL", "name": "Bug Lake", "lat": 41.68541, "lng": -111.41987, "elevation": 7980.0, "state": "Utah"}, {"type": "snotel", "tripletID": "1153:UT:SNTL", "name": "Buckboard Flat", "lat": 37.86943, "lng": -109.44717, "elevation": 8920.0, "state": "Utah"}, {"type": "snotel", "tripletID": "1192:UT:SNTL", "name": "Buck Pasture", "lat": 40.84456, "lng": -110.66068, "elevation": 9630.0, "state": "Utah"}, {"type": "snotel", "tripletID": "371:UT:SNTL", "name": "Buck Flat", "lat": 39.134, "lng": -111.43722, "elevation": 9410.0, "state": "Utah"}, {"type": "snotel", "tripletID": "368:UT:SNTL", "name": "Brown Duck", "lat": 40.58102, "lng": -110.58587, "elevation": 10570.0, "state": "Utah"}, {"type": "snotel", "tripletID": "366:UT:SNTL", "name": "Brighton", "lat": 40.59936, "lng": -111.58167, "elevation": 8790.0, "state": "Utah"}, {"type": "snotel", "tripletID": "1154:UT:SNTL", "name": "Brian Head", "lat": 37.67994, "lng": -112.85674, "elevation": 10040.0, "state": "Utah"}, {"type": "snotel", "tripletID": "1156:UT:SNTL", "name": "Box Springs", "lat": 38.49746, "lng": -112.00779, "elevation": 9230.0, "state": "Utah"}, {"type": "snotel", "tripletID": "364:UT:SNTL", "name": "Box Creek", "lat": 38.50809, "lng": -112.01856, "elevation": 9850.0, "state": "Utah"}, {"type": "snotel", "tripletID": "1278:UT:SNTL", "name": "Bobs Hollow", "lat": 38.94569, "lng": -112.15349, "elevation": 9320.0, "state": "Utah"}, {"type": "snotel", "tripletID": "1162:UT:SNTL", "name": "Blacks Fork Jct", "lat": 40.95814, "lng": -110.5828, "elevation": 8880.0, "state": "Utah"}, {"type": "snotel", "tripletID": "348:UT:SNTL", "name": "Black Flat-U.M. Ck", "lat": 38.6799, "lng": -111.59765, "elevation": 9420.0, "state": "Utah"}, {"type": "snotel", "tripletID": "339:UT:SNTL", "name": "Big Flat", "lat": 38.30183, "lng": -112.35672, "elevation": 10320.0, "state": "Utah"}, {"type": "snotel", "tripletID": "1214:UT:SNTL", "name": "Bevans Cabin", "lat": 40.46182, "lng": -112.25233, "elevation": 6470.0, "state": "Utah"}, {"type": "snotel", "tripletID": "333:UT:SNTL", "name": "Ben Lomond Trail", "lat": 41.38291, "lng": -111.92103, "elevation": 5970.0, "state": "Utah"}, {"type": "snotel", "tripletID": "332:UT:SNTL", "name": "Ben Lomond Peak", "lat": 41.37603, "lng": -111.94405, "elevation": 7690.0, "state": "Utah"}, {"type": "snotel", "tripletID": "330:UT:SNTL", "name": "Beaver Divide", "lat": 40.61233, "lng": -111.09782, "elevation": 8230.0, "state": "Utah"}, {"type": "snotel", "tripletID": "329:UT:SNTL", "name": "Beaver Dams", "lat": 39.13683, "lng": -111.55813, "elevation": 7980.0, "state": "Utah"}, {"type": "snotel", "tripletID": "992:UT:SNTL", "name": "Bear River RS", "lat": 40.8852, "lng": -110.8277, "elevation": 8510.0, "state": "Utah"}, {"type": "snotel", "tripletID": "907:UT:SNTL", "name": "Agua Canyon", "lat": 37.52217, "lng": -112.27118, "elevation": 8890.0, "state": "Utah"}, {"type": "snotel", "tripletID": "873:OR:SNTL", "name": "Wolf Creek", "lat": 45.06703, "lng": -118.15192, "elevation": 5730.0, "state": "Oregon"}, {"type": "snotel", "tripletID": "1044:OR:SNTL", "name": "Toketee Airstrip", "lat": 43.22718, "lng": -122.42537, "elevation": 3240.0, "state": "Oregon"}, {"type": "snotel", "tripletID": "821:OR:SNTL", "name": "Tipton", "lat": 44.65567, "lng": -118.42617, "elevation": 5150.0, "state": "Oregon"}, {"type": "snotel", "tripletID": "815:OR:SNTL", "name": "Three Creeks Meadow", "lat": 44.14425, "lng": -121.64095, "elevation": 5680.0, "state": "Oregon"}, {"type": "snotel", "tripletID": "812:OR:SNTL", "name": "Taylor Green", "lat": 45.07707, "lng": -117.55067, "elevation": 5730.0, "state": "Oregon"}, {"type": "snotel", "tripletID": "810:OR:SNTL", "name": "Taylor Butte", "lat": 42.69108, "lng": -121.42592, "elevation": 5030.0, "state": "Oregon"}, {"type": "snotel", "tripletID": "1077:OR:SNTL", "name": "Swan Lake Mtn", "lat": 42.41323, "lng": -121.68002, "elevation": 6830.0, "state": "Oregon"}, {"type": "snotel", "tripletID": "1078:OR:SNTL", "name": "Sun Pass", "lat": 42.78637, "lng": -121.97715, "elevation": 5400.0, "state": "Oregon"}, {"type": "snotel", "tripletID": "801:OR:SNTL", "name": "Summit Lake", "lat": 43.44907, "lng": -122.13808, "elevation": 5610.0, "state": "Oregon"}, {"type": "snotel", "tripletID": "800:OR:SNTL", "name": "Summer Rim", "lat": 42.6957, "lng": -120.80158, "elevation": 7080.0, "state": "Oregon"}, {"type": "snotel", "tripletID": "794:OR:SNTL", "name": "Strawberry", "lat": 42.12587, "lng": -120.8361, "elevation": 5760.0, "state": "Oregon"}, {"type": "snotel", "tripletID": "789:OR:SNTL", "name": "Starr Ridge", "lat": 44.26423, "lng": -119.02162, "elevation": 5240.0, "state": "Oregon"}, {"type": "snotel", "tripletID": "925:OR:SNTL", "name": "South Fork Bull Run", "lat": 45.44575, "lng": -122.03125, "elevation": 2690.0, "state": "Oregon"}, {"type": "snotel", "tripletID": "767:OR:SNTL", "name": "Snow Mountain", "lat": 43.94885, "lng": -119.54013, "elevation": 6230.0, "state": "Oregon"}, {"type": "snotel", "tripletID": "1167:OR:SNTL", "name": "Smith Ridge", "lat": 44.30325, "lng": -122.04053, "elevation": 3270.0, "state": "Oregon"}, {"type": "snotel", "tripletID": "759:OR:SNTL", "name": "Silvies", "lat": 42.75333, "lng": -118.68785, "elevation": 7000.0, "state": "Oregon"}, {"type": "snotel", "tripletID": "756:OR:SNTL", "name": "Silver Creek", "lat": 42.95615, "lng": -121.18123, "elevation": 5750.0, "state": "Oregon"}, {"type": "snotel", "tripletID": "745:OR:SNTL", "name": "Sevenmile Marsh", "lat": 42.69825, "lng": -122.14165, "elevation": 5690.0, "state": "Oregon"}, {"type": "snotel", "tripletID": "743:OR:SNTL", "name": "Seine Creek", "lat": 45.52688, "lng": -123.29857, "elevation": 2070.0, "state": "Oregon"}, {"type": "snotel", "tripletID": "736:OR:SNTL", "name": "Schneider Meadows", "lat": 45.00107, "lng": -117.16522, "elevation": 5400.0, "state": "Oregon"}, {"type": "snotel", "tripletID": "733:OR:SNTL", "name": "Santiam Jct.", "lat": 44.43503, "lng": -121.94502, "elevation": 3740.0, "state": "Oregon"}, {"type": "snotel", "tripletID": "729:OR:SNTL", "name": "Salt Creek Falls", "lat": 43.61193, "lng": -122.11758, "elevation": 4220.0, "state": "Oregon"}, {"type": "snotel", "tripletID": "726:OR:SNTL", "name": "Saddle Mountain", "lat": 45.54477, "lng": -123.37315, "elevation": 3090.0, "state": "Oregon"}, {"type": "snotel", "tripletID": "721:OR:SNTL", "name": "Rock Springs", "lat": 44.00883, "lng": -118.83842, "elevation": 5290.0, "state": "Oregon"}, {"type": "snotel", "tripletID": "719:OR:SNTL", "name": "Roaring River", "lat": 43.90098, "lng": -122.03063, "elevation": 4960.0, "state": "Oregon"}, {"type": "snotel", "tripletID": "712:OR:SNTL", "name": "Red Hill", "lat": 45.4643, "lng": -121.70428, "elevation": 4410.0, "state": "Oregon"}, {"type": "snotel", "tripletID": "710:OR:SNTL", "name": "Railroad Overpass", "lat": 43.65887, "lng": -122.21272, "elevation": 2680.0, "state": "Oregon"}, {"type": "snotel", "tripletID": "706:OR:SNTL", "name": "Quartz Mountain", "lat": 42.31923, "lng": -120.82533, "elevation": 5710.0, "state": "Oregon"}, {"type": "snotel", "tripletID": "687:OR:SNTL", "name": "Peavine Ridge", "lat": 45.04148, "lng": -121.93252, "elevation": 3420.0, "state": "Oregon"}, {"type": "snotel", "tripletID": "671:OR:SNTL", "name": "Ochoco Meadows", "lat": 44.42917, "lng": -120.3311, "elevation": 5430.0, "state": "Oregon"}, {"type": "snotel", "tripletID": "666:OR:SNTL", "name": "North Fork", "lat": 45.5505, "lng": -122.00283, "elevation": 3070.0, "state": "Oregon"}, {"type": "snotel", "tripletID": "660:OR:SNTL", "name": "New Crescent Lake", "lat": 43.51185, "lng": -121.97982, "elevation": 4910.0, "state": "Oregon"}, {"type": "snotel", "tripletID": "655:OR:SNTL", "name": "Mud Ridge", "lat": 45.25362, "lng": -121.73673, "elevation": 4070.0, "state": "Oregon"}, {"type": "snotel", "tripletID": "653:OR:SNTL", "name": "Mt. Howard", "lat": 45.26522, "lng": -117.17373, "elevation": 7840.0, "state": "Oregon"}, {"type": "snotel", "tripletID": "651:OR:SNTL", "name": "Mt Hood Test Site", "lat": 45.32097, "lng": -121.7158, "elevation": 5380.0, "state": "Oregon"}, {"type": "snotel", "tripletID": "647:OR:SNTL", "name": "Moss Springs", "lat": 45.27173, "lng": -117.68747, "elevation": 5760.0, "state": "Oregon"}, {"type": "snotel", "tripletID": "1084:OR:SNTL", "name": "Miller Woods", "lat": 45.24755, "lng": -123.27563, "elevation": 420.0, "state": "Oregon"}, {"type": "snotel", "tripletID": "1079:OR:SNTL", "name": "Milk Shakes", "lat": 45.9821, "lng": -117.94883, "elevation": 5580.0, "state": "Oregon"}, {"type": "snotel", "tripletID": "619:OR:SNTL", "name": "Mckenzie", "lat": 44.2103, "lng": -121.87292, "elevation": 4770.0, "state": "Oregon"}, {"type": "snotel", "tripletID": "614:OR:SNTL", "name": "Marion Forks", "lat": 44.59397, "lng": -121.97365, "elevation": 2590.0, "state": "Oregon"}, {"type": "snotel", "tripletID": "608:OR:SNTL", "name": "Madison Butte", "lat": 45.10513, "lng": -119.49585, "elevation": 5150.0, "state": "Oregon"}, {"type": "snotel", "tripletID": "605:OR:SNTL", "name": "Lucky Strike", "lat": 45.27478, "lng": -118.8479, "elevation": 4970.0, "state": "Oregon"}, {"type": "snotel", "tripletID": "584:OR:SNTL", "name": "Little Meadows", "lat": 44.61297, "lng": -122.22565, "elevation": 4020.0, "state": "Oregon"}, {"type": "snotel", "tripletID": "563:OR:SNTL", "name": "Lake Creek R.S.", "lat": 44.21007, "lng": -118.63752, "elevation": 5250.0, "state": "Oregon"}, {"type": "snotel", "tripletID": "558:OR:SNTL", "name": "King Mountain", "lat": 42.72395, "lng": -123.20037, "elevation": 4340.0, "state": "Oregon"}, {"type": "snotel", "tripletID": "552:OR:SNTL", "name": "Jump Off Joe", "lat": 44.38605, "lng": -122.16683, "elevation": 3530.0, "state": "Oregon"}, {"type": "snotel", "tripletID": "545:OR:SNTL", "name": "Irish Taylor", "lat": 43.80368, "lng": -121.94793, "elevation": 5540.0, "state": "Oregon"}, {"type": "snotel", "tripletID": "1158:OR:SNTL", "name": "Howard Prairie", "lat": 42.215, "lng": -122.3713, "elevation": 4580.0, "state": "Oregon"}, {"type": "snotel", "tripletID": "529:OR:SNTL", "name": "Holland Meadows", "lat": 43.66917, "lng": -122.56877, "elevation": 4930.0, "state": "Oregon"}, {"type": "snotel", "tripletID": "526:OR:SNTL", "name": "Hogg Pass", "lat": 44.42042, "lng": -121.85655, "elevation": 4800.0, "state": "Oregon"}, {"type": "snotel", "tripletID": "523:OR:SNTL", "name": "High Ridge", "lat": 45.69682, "lng": -118.10657, "elevation": 4900.0, "state": "Oregon"}, {"type": "snotel", "tripletID": "504:OR:SNTL", "name": "Greenpoint", "lat": 45.62237, "lng": -121.70415, "elevation": 3320.0, "state": "Oregon"}, {"type": "snotel", "tripletID": "494:OR:SNTL", "name": "Gold Center", "lat": 44.7638, "lng": -118.3117, "elevation": 5400.0, "state": "Oregon"}, {"type": "snotel", "tripletID": "945:OR:SNTL", "name": "Gerber Reservoir", "lat": 42.2062, "lng": -121.1334, "elevation": 4880.0, "state": "Oregon"}, {"type": "snotel", "tripletID": "483:OR:SNTL", "name": "Fourmile Lake", "lat": 42.43933, "lng": -122.2288, "elevation": 5970.0, "state": "Oregon"}, {"type": "snotel", "tripletID": "479:OR:SNTL", "name": "Fish Lk.", "lat": 42.3801, "lng": -122.34943, "elevation": 4660.0, "state": "Oregon"}, {"type": "snotel", "tripletID": "477:OR:SNTL", "name": "Fish Creek", "lat": 42.70992, "lng": -118.6321, "elevation": 7700.0, "state": "Oregon"}, {"type": "snotel", "tripletID": "470:OR:SNTL", "name": "Emigrant Springs", "lat": 45.55808, "lng": -118.45383, "elevation": 3790.0, "state": "Oregon"}, {"type": "snotel", "tripletID": "464:OR:SNTL", "name": "Eilertson Meadows", "lat": 44.86887, "lng": -118.11387, "elevation": 5510.0, "state": "Oregon"}, {"type": "snotel", "tripletID": "442:OR:SNTL", "name": "Diamond Lake", "lat": 43.18787, "lng": -122.14003, "elevation": 5280.0, "state": "Oregon"}, {"type": "snotel", "tripletID": "440:OR:SNTL", "name": "Derr.", "lat": 44.4465, "lng": -119.93012, "elevation": 5850.0, "state": "Oregon"}, {"type": "snotel", "tripletID": "434:OR:SNTL", "name": "Daly Lake", "lat": 44.52147, "lng": -122.08718, "elevation": 3690.0, "state": "Oregon"}, {"type": "snotel", "tripletID": "1010:OR:SNTL", "name": "Crazyman Flat", "lat": 42.6381, "lng": -120.94917, "elevation": 6190.0, "state": "Oregon"}, {"type": "snotel", "tripletID": "422:OR:SNTL", "name": "County Line", "lat": 45.19107, "lng": -118.55015, "elevation": 4840.0, "state": "Oregon"}, {"type": "snotel", "tripletID": "406:OR:SNTL", "name": "Cold Springs Camp", "lat": 42.53305, "lng": -122.17683, "elevation": 5940.0, "state": "Oregon"}, {"type": "snotel", "tripletID": "401:OR:SNTL", "name": "Clear Lake", "lat": 45.18832, "lng": -121.6916, "elevation": 3810.0, "state": "Oregon"}, {"type": "snotel", "tripletID": "398:OR:SNTL", "name": "Clackamas Lake", "lat": 45.09658, "lng": -121.75443, "elevation": 3400.0, "state": "Oregon"}, {"type": "snotel", "tripletID": "395:OR:SNTL", "name": "Chemult Alternate", "lat": 43.22625, "lng": -121.80662, "elevation": 4850.0, "state": "Oregon"}, {"type": "snotel", "tripletID": "388:OR:SNTL", "name": "Cascade Summit", "lat": 43.59042, "lng": -122.0601, "elevation": 5100.0, "state": "Oregon"}, {"type": "snotel", "tripletID": "362:OR:SNTL", "name": "Bowman Springs", "lat": 45.36428, "lng": -118.46715, "elevation": 4550.0, "state": "Oregon"}, {"type": "snotel", "tripletID": "361:OR:SNTL", "name": "Bourne", "lat": 44.83052, "lng": -118.18787, "elevation": 5850.0, "state": "Oregon"}, {"type": "snotel", "tripletID": "357:OR:SNTL", "name": "Blue Mountain Spring", "lat": 44.24767, "lng": -118.51722, "elevation": 5880.0, "state": "Oregon"}, {"type": "snotel", "tripletID": "351:OR:SNTL", "name": "Blazed Alder", "lat": 45.4287, "lng": -121.85605, "elevation": 3660.0, "state": "Oregon"}, {"type": "snotel", "tripletID": "344:OR:SNTL", "name": "Billie Creek Divide", "lat": 42.40717, "lng": -122.26617, "elevation": 5280.0, "state": "Oregon"}, {"type": "snotel", "tripletID": "343:OR:SNTL", "name": "Bigelow Camp", "lat": 42.07875, "lng": -123.34393, "elevation": 5130.0, "state": "Oregon"}, {"type": "snotel", "tripletID": "341:OR:SNTL", "name": "Big Red Mountain", "lat": 42.05257, "lng": -122.85487, "elevation": 6060.0, "state": "Oregon"}, {"type": "snotel", "tripletID": "331:OR:SNTL", "name": "Beaver Reservoir", "lat": 45.14532, "lng": -118.219, "elevation": 5140.0, "state": "Oregon"}, {"type": "snotel", "tripletID": "1166:OR:SNTL", "name": "Bear Grass", "lat": 44.3253, "lng": -122.0938, "elevation": 4720.0, "state": "Oregon"}, {"type": "snotel", "tripletID": "304:OR:SNTL", "name": "Arbuckle Mtn", "lat": 45.19085, "lng": -119.25392, "elevation": 5770.0, "state": "Oregon"}, {"type": "snotel", "tripletID": "1000:OR:SNTL", "name": "Annie Springs", "lat": 42.87007, "lng": -122.16518, "elevation": 6020.0, "state": "Oregon"}, {"type": "snotel", "tripletID": "302:OR:SNTL", "name": "Aneroid Lake #2", "lat": 45.21328, "lng": -117.19258, "elevation": 7430.0, "state": "Oregon"}, {"type": "snotel", "tripletID": "854:NM:SNTL", "name": "Wesner Springs", "lat": 35.77556, "lng": -105.5425, "elevation": 11110.0, "state": "New Mexico"}, {"type": "snotel", "tripletID": "1017:NM:SNTL", "name": "Vacas Locas", "lat": 36.02635, "lng": -106.81362, "elevation": 9350.0, "state": "New Mexico"}, {"type": "snotel", "tripletID": "1083:NM:SNTL", "name": "Tres Ritos", "lat": 36.12778, "lng": -105.52714, "elevation": 8740.0, "state": "New Mexico"}, {"type": "snotel", "tripletID": "934:NM:SNTL", "name": "Tolby", "lat": 36.47493, "lng": -105.19468, "elevation": 10210.0, "state": "New Mexico"}, {"type": "snotel", "tripletID": "1168:NM:SNTL", "name": "Taos Powderhorn", "lat": 36.58203, "lng": -105.45611, "elevation": 11020.0, "state": "New Mexico"}, {"type": "snotel", "tripletID": "757:NM:SNTL", "name": "Silver Creek Divide", "lat": 33.37106, "lng": -108.70618, "elevation": 9080.0, "state": "New Mexico"}, {"type": "snotel", "tripletID": "755:NM:SNTL", "name": "Signal Peak", "lat": 32.92401, "lng": -108.14538, "elevation": 8390.0, "state": "New Mexico"}, {"type": "snotel", "tripletID": "1034:NM:SNTL", "name": "Sierra Blanca", "lat": 33.40472, "lng": -105.78722, "elevation": 10250.0, "state": "New Mexico"}, {"type": "snotel", "tripletID": "1169:NM:SNTL", "name": "Shuree", "lat": 36.78778, "lng": -105.23999, "elevation": 10070.0, "state": "New Mexico"}, {"type": "snotel", "tripletID": "744:NM:SNTL", "name": "Senorita Divide #2", "lat": 36.00198, "lng": -106.83348, "elevation": 8560.0, "state": "New Mexico"}, {"type": "snotel", "tripletID": "922:NM:SNTL", "name": "Santa Fe", "lat": 35.76694, "lng": -105.78333, "elevation": 11480.0, "state": "New Mexico"}, {"type": "snotel", "tripletID": "1172:NM:SNTL", "name": "San Antonio Sink", "lat": 36.8622, "lng": -106.22502, "elevation": 9120.0, "state": "New Mexico"}, {"type": "snotel", "tripletID": "1254:NM:SNTL", "name": "Rio Santa Barbara", "lat": 36.07192, "lng": -105.62947, "elevation": 10640.0, "state": "New Mexico"}, {"type": "snotel", "tripletID": "933:NM:SNTL", "name": "Rice Park", "lat": 35.23333, "lng": -108.26667, "elevation": 8480.0, "state": "New Mexico"}, {"type": "snotel", "tripletID": "715:NM:SNTL", "name": "Red River Pass #2", "lat": 36.69925, "lng": -105.34125, "elevation": 9840.0, "state": "New Mexico"}, {"type": "snotel", "tripletID": "708:NM:SNTL", "name": "Quemazon", "lat": 35.92244, "lng": -106.39203, "elevation": 9500.0, "state": "New Mexico"}, {"type": "snotel", "tripletID": "1170:NM:SNTL", "name": "Palo", "lat": 36.40848, "lng": -105.33063, "elevation": 9330.0, "state": "New Mexico"}, {"type": "snotel", "tripletID": "665:NM:SNTL", "name": "North Costilla", "lat": 36.99378, "lng": -105.25963, "elevation": 10570.0, "state": "New Mexico"}, {"type": "snotel", "tripletID": "1138:NM:SNTL", "name": "Navajo Whiskey Ck", "lat": 36.17728, "lng": -108.94691, "elevation": 9050.0, "state": "New Mexico"}, {"type": "snotel", "tripletID": "1048:NM:SNTL", "name": "Mcknight Cabin", "lat": 33.00812, "lng": -107.86975, "elevation": 9230.0, "state": "New Mexico"}, {"type": "snotel", "tripletID": "595:NM:SNTL", "name": "Lookout Mountain", "lat": 33.36027, "lng": -107.83122, "elevation": 8500.0, "state": "New Mexico"}, {"type": "snotel", "tripletID": "532:NM:SNTL", "name": "Hopewell", "lat": 36.71631, "lng": -106.26348, "elevation": 10080.0, "state": "New Mexico"}, {"type": "snotel", "tripletID": "1173:NM:SNTL", "name": "Garita Peak", "lat": 36.005, "lng": -106.54838, "elevation": 10100.0, "state": "New Mexico"}, {"type": "snotel", "tripletID": "491:NM:SNTL", "name": "Gallegos Peak", "lat": 36.19446, "lng": -105.55795, "elevation": 9460.0, "state": "New Mexico"}, {"type": "snotel", "tripletID": "486:NM:SNTL", "name": "Frisco Divide", "lat": 33.73646, "lng": -108.94502, "elevation": 8010.0, "state": "New Mexico"}, {"type": "snotel", "tripletID": "921:NM:SNTL", "name": "Elk Cabin", "lat": 35.7043, "lng": -105.80675, "elevation": 8220.0, "state": "New Mexico"}, {"type": "snotel", "tripletID": "394:NM:SNTL", "name": "Chamita", "lat": 36.95636, "lng": -106.65682, "elevation": 8360.0, "state": "New Mexico"}, {"type": "snotel", "tripletID": "316:NM:SNTL", "name": "Bateman", "lat": 36.51216, "lng": -106.32129, "elevation": 9230.0, "state": "New Mexico"}, {"type": "snotel", "tripletID": "876:MT:SNTL", "name": "Wood Creek", "lat": 47.44847, "lng": -112.81428, "elevation": 5970.0, "state": "Montana"}, {"type": "snotel", "tripletID": "862:MT:SNTL", "name": "White Mill", "lat": 45.04575, "lng": -109.90987, "elevation": 8730.0, "state": "Montana"}, {"type": "snotel", "tripletID": "858:MT:SNTL", "name": "Whiskey Creek", "lat": 44.61088, "lng": -111.14998, "elevation": 6790.0, "state": "Montana"}, {"type": "snotel", "tripletID": "924:MT:SNTL", "name": "West Yellowstone", "lat": 44.65866, "lng": -111.09199, "elevation": 6680.0, "state": "Montana"}, {"type": "snotel", "tripletID": "850:MT:SNTL", "name": "Warm Springs", "lat": 46.27368, "lng": -113.164, "elevation": 7840.0, "state": "Montana"}, {"type": "snotel", "tripletID": "847:MT:SNTL", "name": "Waldron", "lat": 47.91998, "lng": -112.79087, "elevation": 5640.0, "state": "Montana"}, {"type": "snotel", "tripletID": "836:MT:SNTL", "name": "Twin Lakes", "lat": 46.1438, "lng": -114.5056, "elevation": 6380.0, "state": "Montana"}, {"type": "snotel", "tripletID": "835:MT:SNTL", "name": "Twelvemile Creek", "lat": 46.14287, "lng": -114.44755, "elevation": 5530.0, "state": "Montana"}, {"type": "snotel", "tripletID": "893:MT:SNTL", "name": "Tizer Basin", "lat": 46.34937, "lng": -111.85308, "elevation": 6880.0, "state": "Montana"}, {"type": "snotel", "tripletID": "813:MT:SNTL", "name": "Tepee Creek", "lat": 44.78562, "lng": -111.71, "elevation": 7950.0, "state": "Montana"}, {"type": "snotel", "tripletID": "901:MT:SNTL", "name": "Stuart Mountain", "lat": 46.99523, "lng": -113.92664, "elevation": 7270.0, "state": "Montana"}, {"type": "snotel", "tripletID": "1009:MT:SNTL", "name": "Stringer Creek", "lat": 46.9269, "lng": -110.90198, "elevation": 6550.0, "state": "Montana"}, {"type": "snotel", "tripletID": "787:MT:SNTL", "name": "Stahl Peak", "lat": 48.90902, "lng": -114.86298, "elevation": 6040.0, "state": "Montana"}, {"type": "snotel", "tripletID": "781:MT:SNTL", "name": "Spur Park", "lat": 46.77962, "lng": -110.62165, "elevation": 8080.0, "state": "Montana"}, {"type": "snotel", "tripletID": "783:MT:SNTL", "name": "Sleeping Woman", "lat": 47.17902, "lng": -114.33368, "elevation": 6120.0, "state": "Montana"}, {"type": "snotel", "tripletID": "760:MT:SNTL", "name": "Skalkaho Summit", "lat": 46.24212, "lng": -113.7725, "elevation": 7260.0, "state": "Montana"}, {"type": "snotel", "tripletID": "754:MT:SNTL", "name": "Shower Falls", "lat": 45.40125, "lng": -110.95758, "elevation": 8060.0, "state": "Montana"}, {"type": "snotel", "tripletID": "753:MT:SNTL", "name": "Short Creek", "lat": 44.97572, "lng": -111.95215, "elevation": 6990.0, "state": "Montana"}, {"type": "snotel", "tripletID": "727:MT:SNTL", "name": "Saddle Mtn.", "lat": 45.69259, "lng": -113.96828, "elevation": 7890.0, "state": "Montana"}, {"type": "snotel", "tripletID": "929:MT:SNTL", "name": "Sacajawea", "lat": 45.87395, "lng": -110.92783, "elevation": 6610.0, "state": "Montana"}, {"type": "snotel", "tripletID": "725:MT:SNTL", "name": "S Fork Shields", "lat": 46.0896, "lng": -110.43363, "elevation": 8090.0, "state": "Montana"}, {"type": "snotel", "tripletID": "917:MT:SNTL", "name": "Rocky Boy", "lat": 48.17478, "lng": -109.64728, "elevation": 4730.0, "state": "Montana"}, {"type": "snotel", "tripletID": "722:MT:SNTL", "name": "Rocker Peak", "lat": 46.35613, "lng": -112.26176, "elevation": 7960.0, "state": "Montana"}, {"type": "snotel", "tripletID": "700:MT:SNTL", "name": "Porcupine", "lat": 46.11192, "lng": -110.4696, "elevation": 6480.0, "state": "Montana"}, {"type": "snotel", "tripletID": "932:MT:SNTL", "name": "Poorman Creek", "lat": 48.12672, "lng": -115.62333, "elevation": 5050.0, "state": "Montana"}, {"type": "snotel", "tripletID": "696:MT:SNTL", "name": "Placer Basin", "lat": 45.41905, "lng": -110.08844, "elevation": 8790.0, "state": "Montana"}, {"type": "snotel", "tripletID": "693:MT:SNTL", "name": "Pike Creek", "lat": 48.30305, "lng": -113.32868, "elevation": 5930.0, "state": "Montana"}, {"type": "snotel", "tripletID": "690:MT:SNTL", "name": "Pickfoot Creek", "lat": 46.57978, "lng": -111.26832, "elevation": 6680.0, "state": "Montana"}, {"type": "snotel", "tripletID": "930:MT:SNTL", "name": "Peterson Meadows", "lat": 46.12588, "lng": -113.30792, "elevation": 7190.0, "state": "Montana"}, {"type": "snotel", "tripletID": "1008:MT:SNTL", "name": "Onion Park", "lat": 46.91348, "lng": -110.8536, "elevation": 7420.0, "state": "Montana"}, {"type": "snotel", "tripletID": "670:MT:SNTL", "name": "Northeast Entrance", "lat": 45.00565, "lng": -110.01406, "elevation": 7420.0, "state": "Montana"}, {"type": "snotel", "tripletID": "667:MT:SNTL", "name": "North Fork Jocko", "lat": 47.2726, "lng": -113.75617, "elevation": 6110.0, "state": "Montana"}, {"type": "snotel", "tripletID": "664:MT:SNTL", "name": "Noisy Basin", "lat": 48.15678, "lng": -113.94637, "elevation": 6070.0, "state": "Montana"}, {"type": "snotel", "tripletID": "662:MT:SNTL", "name": "Nez Perce Camp", "lat": 45.73107, "lng": -114.48075, "elevation": 5670.0, "state": "Montana"}, {"type": "snotel", "tripletID": "903:MT:SNTL", "name": "Nevada Ridge", "lat": 46.84234, "lng": -112.50787, "elevation": 7030.0, "state": "Montana"}, {"type": "snotel", "tripletID": "657:MT:SNTL", "name": "N Fk Elk Creek", "lat": 46.8716, "lng": -113.27725, "elevation": 6180.0, "state": "Montana"}, {"type": "snotel", "tripletID": "656:MT:SNTL", "name": "Mule Creek", "lat": 45.40957, "lng": -112.95927, "elevation": 8300.0, "state": "Montana"}, {"type": "snotel", "tripletID": "649:MT:SNTL", "name": "Mount Lockhart", "lat": 47.91727, "lng": -112.8238, "elevation": 6430.0, "state": "Montana"}, {"type": "snotel", "tripletID": "646:MT:SNTL", "name": "Moss Peak", "lat": 47.68493, "lng": -113.9623, "elevation": 6760.0, "state": "Montana"}, {"type": "snotel", "tripletID": "635:MT:SNTL", "name": "Monument Peak", "lat": 45.21759, "lng": -110.237, "elevation": 8740.0, "state": "Montana"}, {"type": "snotel", "tripletID": "613:MT:SNTL", "name": "Many Glacier", "lat": 48.79698, "lng": -113.6705, "elevation": 4930.0, "state": "Montana"}, {"type": "snotel", "tripletID": "609:MT:SNTL", "name": "Madison Plateau", "lat": 44.58623, "lng": -111.11627, "elevation": 7710.0, "state": "Montana"}, {"type": "snotel", "tripletID": "604:MT:SNTL", "name": "Lubrecht Flume", "lat": 46.88293, "lng": -113.32228, "elevation": 4690.0, "state": "Montana"}, {"type": "snotel", "tripletID": "603:MT:SNTL", "name": "Lower Twin", "lat": 45.50871, "lng": -111.92288, "elevation": 7920.0, "state": "Montana"}, {"type": "snotel", "tripletID": "590:MT:SNTL", "name": "Lone Mountain", "lat": 45.27412, "lng": -111.42692, "elevation": 8820.0, "state": "Montana"}, {"type": "snotel", "tripletID": "578:MT:SNTL", "name": "Lick Creek", "lat": 45.5041, "lng": -110.96625, "elevation": 6880.0, "state": "Montana"}, {"type": "snotel", "tripletID": "576:MT:SNTL", "name": "Lemhi Ridge", "lat": 44.9938, "lng": -113.44399, "elevation": 8080.0, "state": "Montana"}, {"type": "snotel", "tripletID": "568:MT:SNTL", "name": "Lakeview Ridge", "lat": 44.58907, "lng": -111.82498, "elevation": 7340.0, "state": "Montana"}, {"type": "snotel", "tripletID": "562:MT:SNTL", "name": "Kraft Creek", "lat": 47.42749, "lng": -113.77515, "elevation": 4770.0, "state": "Montana"}, {"type": "snotel", "tripletID": "1287:MT:SNTL", "name": "JL Meadow", "lat": 44.77665, "lng": -113.12217, "elevation": 8750.0, "state": "Montana"}, {"type": "snotel", "tripletID": "530:MT:SNTL", "name": "Hoodoo Basin", "lat": 46.9751, "lng": -115.0349, "elevation": 6060.0, "state": "Montana"}, {"type": "snotel", "tripletID": "516:MT:SNTL", "name": "Hawkins Lake", "lat": 48.9723, "lng": -115.95337, "elevation": 6460.0, "state": "Montana"}, {"type": "snotel", "tripletID": "510:MT:SNTL", "name": "Hand Creek", "lat": 48.30754, "lng": -114.84075, "elevation": 5030.0, "state": "Montana"}, {"type": "snotel", "tripletID": "500:MT:SNTL", "name": "Grave Creek", "lat": 48.91453, "lng": -114.76663, "elevation": 4350.0, "state": "Montana"}, {"type": "snotel", "tripletID": "918:MT:SNTL", "name": "Garver Creek", "lat": 48.97523, "lng": -115.81915, "elevation": 4250.0, "state": "Montana"}, {"type": "snotel", "tripletID": "487:MT:SNTL", "name": "Frohner Meadow", "lat": 46.43545, "lng": -112.19277, "elevation": 6520.0, "state": "Montana"}, {"type": "snotel", "tripletID": "482:MT:SNTL", "name": "Flattop Mtn.", "lat": 48.80225, "lng": -113.85713, "elevation": 6280.0, "state": "Montana"}, {"type": "snotel", "tripletID": "480:MT:SNTL", "name": "Fisher Creek", "lat": 45.06235, "lng": -109.94488, "elevation": 9110.0, "state": "Montana"}, {"type": "snotel", "tripletID": "469:MT:SNTL", "name": "Emery Creek", "lat": 48.43412, "lng": -113.93725, "elevation": 4340.0, "state": "Montana"}, {"type": "snotel", "tripletID": "1106:MT:SNTL", "name": "1106:MT:SNTL", "lat": 46.4845, "lng": -110.7125, "elevation": null, "state": "Montana"}, {"type": "snotel", "tripletID": "1105:MT:SNTL", "name": "East Boulder Mine", "lat": 45.50381, "lng": -110.08019, "elevation": 6310.0, "state": "Montana"}, {"type": "snotel", "tripletID": "458:MT:SNTL", "name": "Dupuyer Creek", "lat": 48.06341, "lng": -112.7573, "elevation": 5740.0, "state": "Montana"}, {"type": "snotel", "tripletID": "448:MT:SNTL", "name": "Divide", "lat": 44.79317, "lng": -112.05645, "elevation": 7770.0, "state": "Montana"}, {"type": "snotel", "tripletID": "437:MT:SNTL", "name": "Deadman Creek", "lat": 46.79279, "lng": -110.67545, "elevation": 6440.0, "state": "Montana"}, {"type": "snotel", "tripletID": "436:MT:SNTL", "name": "Darkhorse Lake", "lat": 45.17367, "lng": -113.58448, "elevation": 8930.0, "state": "Montana"}, {"type": "snotel", "tripletID": "433:MT:SNTL", "name": "Daly Creek", "lat": 46.18367, "lng": -113.8533, "elevation": 5780.0, "state": "Montana"}, {"type": "snotel", "tripletID": "919:MT:SNTL", "name": "Daisy Peak", "lat": 46.66858, "lng": -110.33022, "elevation": 7590.0, "state": "Montana"}, {"type": "snotel", "tripletID": "427:MT:SNTL", "name": "Crystal Lake", "lat": 46.78942, "lng": -109.51205, "elevation": 6130.0, "state": "Montana"},